Street Address,Zip Code,List Price,Lat,Long,Tax Ammount,School Dist,List Date
"2228 S Lamar BLVD, Austin TX 78704",78704,2000000,30.247823,-97.77326,13712.0,,2015-01-29
"913 E 12th ST, Austin TX 78702",78702,500000,30.271967,-97.729721,3570.0,,2015-03-01
"3821 Juniper TRCE # 207, Austin TX 78738",78738,400000,30.307804,-97.933612,6038.0,,2015-06-27
"1008 Main ST, Bastrop TX 78602",78602,300000,30.110873,-97.320438,6008.0,,2015-07-17
"10880 E Crystal Falls PKWY, Leander TX 78641",78641,2000000,30.566044,-97.814137,5.0,,2015-07-28
"2514 A E Cesar Chavez ST, Austin TX 78702",78702,300000,30.254113,-97.715476,9355.0,,2015-05-22
"1103 S Ranch Road 620, Lakeway TX 78734",78734,2000000,30.351627,-97.962213,21140.0,,2015-06-01
"150 Settlement DR, Bastrop TX 78602",78602,1000000,30.114269,-97.347675,33458.0,,2015-07-11
"315 Riverwood DR, Bastrop TX 78602",78602,300000,30.123533,-97.344012,4060.0,,2015-06-08
"trac 22 W Heritage US 290, Austin TX 78737",78737,400000,30.210211,-97.990687,3681.0,,2015-06-15
"11001 W U S Hwy 290, Austin TX 78737",78737,800000,30.220646,-97.956621,5257.3,,2015-04-02
"Tract 2.5 Ac. Right front US 290, Dripping Springs TX 78620",78620,1000000,30.202096,-98.153318,17312.0,,2015-04-14
"806 W 29th ST, Austin TX 78705",78705,1000000,30.297163,-97.745484,11550.0,,2015-05-11
"202 E Anderson AVE, Round Rock TX 78664",78664,200000,30.511434,-97.678551,1773.0,,2015-08-19
"8579 State Hwy 31 W, Other TX 75751",75751,500000,32.190403,-95.923305,6305.0,,2015-10-01
,78645,5000000,30.428185,-97.959225,44490.0,,2015-12-10
"5501 La Crosse, Austin TX 78738",78738,2000000,30.191683,-97.878697,133027.34,,2015-11-03
"13010 Harris Branch PKWY, Austin TX 78653",78653,400000,30.380483,-97.607519,2147.0,,2015-10-27
"398 1/2 W Walter Hoffman RD, Cedar Creek TX 78602",78602,30000,30.081817,-97.415774,459.0,Bastrop ISD,2015-04-10
"1234 FM 2843, Florence TX 76527",76527,400000,30.862637,-97.741735,400.0,Florence ISD,2015-04-13
"112 Hills WAY, Horseshoe Bay TX 78657",78657,600000,30.548142,-98.41456,6598.0,Llano ISD,2015-04-13
"319 Acorn LN, Killeen TX 76542",76542,200000,30.988756,-97.714667,311.0,Florence ISD,2015-05-25
"2121 CR 441, Harwood TX 78632",78632,100000,29.720416,-97.420553,17.0,Waelder ISD,2015-05-22
"9.98 Acres County Rd 304, Bertram TX 78605",78605,70000,30.751637,-98.132271,15.0,Burnet ISD,2015-04-27
"106 Reed RD, Valley Spring TX 76885",76885,500000,30.129095,-95.365255,7800.0,Llano ISD,2015-05-25
"4919 Harold RD, Waelder TX 78941",78941,100000,29.789074,-97.273707,1933.0,Flatonia ISD,2015-08-16
"172 Hills Prairie RD, Bastrop TX 78602",78602,400000,30.046211,-97.319684,4000.0,Bastrop ISD,2015-11-10
"105 Circle DR, Wimberley TX 78676",78676,200000,30.047556,-98.215253,1692.0,Wimberley ISD,2015-09-01
"4610 290 HWY, Dripping Springs TX 78620",78620,500000,30.197968,-98.169314,5685.0,Dripping Springs ISD,2015-09-01
"2301 County Road 279, Leander TX 78641",78641,600000,30.63442,-97.904321,10076.0,Liberty Hill ISD,2015-11-13
"TBD Zimmerhanzel Rd., Kovar TX 78957",78957,2000000,29.915333,-97.217302,305.0,Smithville ISD,2015-11-17
"TBD N. Cedar Creek RD, Cedar Creek TX 78612",78612,400000,30.090835,-97.493197,77.0,Bastrop ISD,2015-11-06
"0 E Side Hwy 2657, Kempner TX 76539",76539,200000,31.0719,-97.92207,87.0,Lampasas ISD,2015-10-09
"1185 County Road 258, Bertram TX 78605",78605,500000,30.760809,-98.10028,3080.0,Burnet ISD,2015-10-11
"00 County Road 1255, Copperas Cove TX 76522",76522,2000000,29.888769,-94.807066,583.0,Lampasas ISD,2015-09-29
"2844 Hwy 290 and CR 360, McDade TX 78650",78650,2000000,30.242623,-97.212189,664.14,McDade ISD,2015-09-30
"496 CR 232L, Rockdale TX 76567",76567,50000,30.758521,-96.982281,382.31,Rockdale ISD,2015-10-19
"0 Cotton Gin Road, Uhland TX 78640",78640,200000,29.973907,-97.804404,65.0,Hays ISD,2015-10-13
"800 County Road 454, Taylor TX 76574",76574,70000,30.479839,-97.390185,989.0,Taylor ISD,2015-10-29
"15201 Chaparral DR, Leander TX 78641",78641,100000,30.594147,-97.963464,3516.0,Leander ISD,2015-12-28
"3148 Highway 290, Paige TX 78659",78659,400000,30.225316,-97.165122,1524.0,McDade ISD,2015-12-06
"112 River Valley DR, Georgetown TX 78626",78626,300000,30.658206,-97.60351,0.0,Georgetown ISD,2015-12-09
"1146 Private Road 2003 GRV, Paige TX 78659",78659,300000,30.187898,-97.01603,3576.0,Giddings ISD,2015-01-02
"0 Kinsey TRL, Luling TX 78648",78648,50000,29.744644,-97.685716,821.0,Luling ISD,2015-02-12
"5636 County Road 1255, Lampasas TX 76550",76550,600000,31.053413,-98.335825,220.0,Lampasas ISD,2015-02-13
"1928 FM 1579, Schulenburg TX 78956",78956,600000,29.678957,-96.871453,972.0,Schulenburg ISD,2015-02-24
"4701 Lone Man Mountain RD, Wimberley TX 78676",78676,900000,30.054318,-98.040917,7892.0,Wimberley ISD,2015-03-02
"2425 Ranch Road 165, Henly TX 78620",78620,400000,30.172365,-98.24048,16.63,Johnson City ISD,2015-01-05
,78620,700000,30.27116,-98.128919,10037.0,Dripping Springs ISD,2015-02-26
"0 Big Sandy RD, Johnson City TX 78636",78636,300000,30.345294,-98.446175,31.81,Johnson City ISD,2015-01-16
"2844 County Road 320, Lexington TX 78947",78947,100000,30.480434,-97.038261,2021.0,Lexington ISD,2015-01-21
"811 High Crossing RD, Smithville TX 78957",78957,200000,29.954083,-97.218568,318.0,Smithville ISD,2015-01-30
"0 Knight LN, Harwood TX 78632",78632,200000,29.803076,-97.478254,16.0,Lockhart ISD,2015-01-29
"13713 N Fm 487, Buckholts TX 76518",76518,50000,30.747182,-97.168161,536.0,Rockdale ISD,2015-02-06
"1798 Trails End RD, Johnson City TX 78636",78636,500000,30.330518,-98.448261,908.0,Johnson City ISD,2015-02-05
"0 Cedar Hills DR, Elgin TX 78621",78621,200000,30.285164,-97.343918,2187.0,Elgin ISD,2015-03-19
"000 N Highway 77, Giddings TX 78942",78942,100000,30.176279,-96.93676,12.0,Giddings ISD,2015-03-09
"4445 W Fm 696, Lexington TX 78947",78947,500000,30.386603,-97.156577,5702.0,Lexington ISD,2015-03-12
"530 Abbey RD, Liberty Hill TX 78642",78642,600000,30.765606,-97.913568,6995.0,Liberty Hill ISD,2015-03-16
"859 Rio Escondido RD, Harper TX 78631",78631,7000000,30.231014,-99.210645,28000.0,Harper ISD,2015-03-07
"0 Deike Drive, Johnson City TX 78636",78636,500000,30.257485,-98.503286,50.0,Johnson City ISD,2015-06-18
"1351 County Road 144, Georgetown TX 78626",78626,300000,30.754713,-97.614854,2192.0,Jarrell ISD,2015-06-22
"140 Spencewood DR, Bastrop TX 78602",78602,800000,30.098798,-97.398678,8107.0,Bastrop ISD,2015-06-19
"1163 Private Road 6002, Giddings TX 78942",78942,700000,30.13828,-97.018814,4733.0,Giddings ISD,2015-04-07
"738 FM 969, Bastrop TX 78602",78602,2000000,30.134649,-97.394153,177.0,Bastrop ISD,2015-04-10
"000 CR 235, Minerva TX 76567",76567,60000,30.758388,-96.987864,47.0,Rockdale ISD,2015-04-02
"3425 Old Marble Falls RD, Round Mountain TX 78663",78663,500000,30.473601,-98.322337,6855.0,Johnson City ISD,2015-04-27
"0 S FM 2104, Smithville TX 78659",78659,300000,30.164581,-97.083928,55.0,Smithville ISD,2015-07-29
"10961 FM 967, Buda TX 78610",78610,1000000,30.120439,-97.995758,8449.0,Hays ISD,2015-08-07
"250 Amber Oaks, Burnet TX 78611",78611,400000,30.682782,-98.283685,3292.0,Marble Falls ISD,2015-07-20
"1 County Road 354, Granger TX 76530",76530,100000,30.74616,-97.431214,186.0,Granger ISD,2015-07-07
"2188 County Road 152, Georgetown TX 78626",78626,200000,30.690609,-97.634271,18.0,Georgetown ISD,2015-04-15
"2629 County Road 414, Thorndale TX 76577",76577,1000000,30.727271,-97.189437,4580.0,Rockdale ISD,2015-08-10
"0000 FM 973 N FM  973, Coupland TX 78615",78615,700000,30.435099,-97.494213,5226.0,Pflugerville ISD,2015-03-24
"193 Ponderosa Rd., Bastrop TX 78602",78602,400000,30.065097,-97.2325,5843.0,Smithville ISD,2015-04-02
"TRACT 8 A County Road 204, Liberty Hill TX 78642",78642,200000,30.751076,-97.938714,808.0,Liberty Hill ISD,2015-04-14
"1100 County Road 124, Georgetown TX 78626",78626,400000,30.669016,-97.565306,5380.0,Georgetown ISD,2015-07-27
"5534 Mach RD, La Grange TX 78945",78945,600000,29.8235,-96.984745,3817.0,La Grange ISD,2015-04-08
"3404 McGregor LN, Dripping Springs TX 78620",78620,600000,30.257969,-98.153756,6870.0,Dripping Springs ISD,2015-07-17
"129 Guadalupe Hills LN, Seguin TX 78155",78155,300000,29.495394,-97.755033,4921.0,Seguin ISD,2015-04-22
"7200 Spicewood Springs RD, Austin TX 78759",78759,3000000,30.406679,-97.788791,25031.0,Round Rock ISD,2015-05-20
,76549,100000,30.990033,-97.834953,693.0,Florence ISD,2015-04-24
"374 Charcoal RD, Waelder TX 78959",78959,300000,29.695458,-97.26882,1601.0,Smithville ISD,2015-07-20
"1220 Sandy Oaks Ranch RD, Johnson City TX 78636",78636,500000,30.328933,-98.40842,8358.92,Johnson City ISD,2015-04-30
"2810 Fm 1115, Waelder TX 78959",78959,800000,29.746463,-97.260597,4137.0,Flatonia ISD,2015-04-29
"979 Fm 1682, Leesville TX 78122",78122,100000,29.415974,-97.651434,1083.0,Nixon-Smiley Cons ISD,2015-04-29
"0000 Kings CV, Temple TX 76513",76513,300000,31.134653,-97.483545,2581.0,Belton ISD,2015-05-01
"3650 Wayside DR, Wimberley TX 78676",78676,300000,29.979998,-98.164649,3701.0,Wimberley ISD,2015-09-01
"0 (lot 3) Brushy Top TRL, Blanco TX 78606",78606,300000,30.153049,-98.395828,287.62,Blanco ISD,2015-09-01
"tbd County Line Rd, Elgin TX 78621",78621,90000,30.397719,-97.38424,100.0,Elgin ISD,2015-09-06
"672 Shiloh RD, Bastrop TX 78602",78602,400000,30.099165,-97.400318,5950.0,Bastrop ISD,2015-09-11
"1585 Crooked RD, Dale TX 78616",78616,400000,29.997866,-97.584291,3724.43,Lockhart ISD,2015-11-09
"1251 Deer Point, Other TX 77836",77836,200000,30.449781,-96.547637,1800.0,Other,2015-08-21
"1565 Seminole TRL, Dale TX 78616",78616,200000,29.984926,-97.603887,0.0,Lockhart ISD,2015-11-12
"2935 County Road 126, Other TX 78114",78114,80000,29.152,-98.364,1330.0,Other,2015-10-19
"1488 Rocky Creek RD, Other TX 78055",78055,2000000,29.880628,-99.324251,3000.0,Other,2015-10-14
"2150 FM 1351, Other TX 77963",77963,700000,28.640805,-97.492677,500.0,Other,2015-10-13
"6975 U.S. HWY 281, Burnet TX 78611",78611,300000,30.847555,-98.236532,381.0,Burnet ISD,2015-11-01
"11050 Bonham Ranch RD, Dripping Springs TX 78620",78620,600000,30.261737,-98.046317,3638.0,Dripping Springs ISD,2015-10-14
"8301 FM 487, Florence TX 76527",76527,1000000,30.839287,-97.716372,8000.0,Florence ISD,2015-10-16
"6606 CREEK RD, Dripping Springs TX 78620",78620,700000,30.183769,-98.175252,185.0,Dripping Springs ISD,2015-11-24
"3208 FM 532, Other TX 77975",77975,400000,29.567608,-97.093668,1955.0,Other,2015-11-25
"Lot 15035 N Hwy 281, Marble Falls TX 78654",78654,90000,30.623844,-98.265032,2729.0,Marble Falls ISD,2015-12-01
"3117 E 51st ST, Austin TX 78723",78723,600000,30.295081,-97.681703,5462.0,,2015-01-14
"19105 F M Road 969, Webberville TX 78653",78653,300000,30.226789,-97.514389,4797.0,,2015-08-17
"1705 Wood Vista PL, Round Rock TX 78665",78665,300000,30.57124,-97.664949,7901.0,Round Rock ISD,2015-09-01
"5806 Cherry PARK, Austin TX 78745",78745,200000,30.207495,-97.787225,5672.0,Austin ISD,2015-01-20
"1413 Travis Heights BLVD, Austin TX 78704",78704,700000,30.246168,-97.740413,12178.0,Austin ISD,2015-03-11
"2207 Young Place, Other TX 77807",77807,100000,30.626869,-96.381941,1683.0,Other,2015-02-16
"1507 Rockdale CIR, Austin TX 78704",78704,400000,30.232876,-97.779433,6942.0,Austin ISD,2015-02-20
"1807 Prairie Knoll CT, Austin TX 78758",78758,200000,30.396509,-97.701568,4576.0,Austin ISD,2015-02-27
"2710 Burleson RD, Austin TX 78741",78741,300000,30.223493,-97.734973,2856.0,Austin ISD,2015-02-26
"518 Cutty TRL, Lakeway TX 78734",78734,300000,30.370367,-97.971237,4816.0,Lake Travis ISD,2015-03-10
"1205 1/2 Enfield RD, Austin TX 78703",78703,500000,30.279958,-97.754583,7205.0,Austin ISD,2015-06-09
"5301 Indio CIR, Austin TX 78745",78745,300000,30.222829,-97.804159,4737.0,Austin ISD,2015-06-18
"4803 Ribbecke AVE, Austin TX 78721",78721,400000,30.27949,-97.683536,4223.0,Austin ISD,2015-06-24
"3503 Rocky Hollow TRL, Georgetown TX 78628",78628,200000,30.670809,-97.695158,3135.0,Georgetown ISD,2015-07-01
"3305 Dolphin CV, Austin TX 78704",78704,300000,30.235659,-97.776372,2958.0,Austin ISD,2015-03-09
"2006 W Loop, Austin TX 78758",78758,300000,30.372486,-97.71853,4795.0,Austin ISD,2015-04-24
"11439 Ptarmigan DR, Austin TX 78758",78758,200000,30.393153,-97.704853,5067.0,Pflugerville ISD,2015-05-24
"5006 SE Copperbend BLVD S, Austin TX 78744",78744,300000,30.196379,-97.740952,3276.0,Austin ISD,2015-11-16
"1187 & 1191 Creekside ORCH, New Braunfels TX 78130",78130,300000,29.708199,-98.06771,7582.0,Comal ISD,2015-12-28
"8810 Schick RD, Austin TX 78729",78729,500000,30.447933,-97.777944,9256.0,Round Rock ISD,2015-12-09
"104/106 Marvin CV, Hutto TX 78634",78634,200000,30.538393,-97.556596,5103.0,Hutto ISD,2015-12-14
"1902 Dayflower TRCE, Cedar Park TX 78613",78613,300000,30.469493,-97.837663,6160.0,Leander ISD,2015-11-21
"1005 Duncan DR, Cedar Park TX 78613",78613,300000,30.486479,-97.85091,7630.0,Leander ISD,2015-11-16
"4704 Fallenash DR, Austin TX 78725",78725,100000,30.246038,-97.584619,2682.0,Del Valle ISD,2015-11-19
"1002 Bretton Woods DR, Cedar Park TX 78613",78613,400000,30.509456,-97.807432,8441.0,Leander ISD,2015-11-27
"112 Azolar ST, San Marcos TX 78666",78666,200000,29.835107,-97.931559,3000.0,San Marcos ISD,2015-11-20
"12119 Black Angus DR, Austin TX 78727",78727,400000,30.420562,-97.730311,5665.0,Austin ISD,2015-11-27
"5243 Mccormick Mountain DR, Austin TX 78734",78734,1000000,30.408179,-97.91537,11878.0,Lake Travis ISD,2015-12-01
"13516 Gerald Ford ST, Manor TX 78653",78653,200000,30.355205,-97.523444,810.0,Manor ISD,2015-11-27
"9400 Privet DR, Austin TX 78748",78748,300000,30.17258,-97.809624,8074.0,Austin ISD,2015-12-02
"2327 Klattenhoff DR, Austin TX 78728",78728,200000,30.441405,-97.684313,3504.0,Round Rock ISD,2015-11-27
"323 Black Cap RUN, Buda TX 78610",78610,200000,30.038446,-97.814738,4291.0,Hays ISD,2015-11-25
"5125 Mcdade DR, Austin TX 78735",78735,600000,30.255167,-97.831995,11604.0,Austin ISD,2015-11-27
"5313 Daimler DR, Austin TX 78744",78744,200000,30.194727,-97.737456,5168.0,Del Valle ISD,2015-12-07
"305 Cowal DR, Spicewood TX 78669",78669,300000,30.413499,-98.041238,6766.0,Lake Travis ISD,2015-12-04
"506 E Clark ST, Bartlett TX 76511",76511,70000,30.794203,-97.4233,986.0,Bartlett ISD,2015-12-08
"121 Galloway LN, Austin TX 78737",78737,400000,30.185014,-97.984573,0.0,Dripping Springs ISD,2015-12-09
"1701 S Bell BLVD # 102, Cedar Park TX 78613",78613,200000,30.491309,-97.80978,5861.0,Leander ISD,2015-12-12
"3925 Rosa Park LN, Pflugerville TX 78660",78660,300000,30.472699,-97.54935,10176.0,Pflugerville ISD,2015-12-10
"1505 Ridge Rock DR, Round Rock TX 78681",78681,300000,30.495604,-97.699582,5884.0,Round Rock ISD,2015-12-10
"1702 Secluded Willow CV, Pflugerville TX 78660",78660,200000,30.47253,-97.590778,5895.0,Pflugerville ISD,2015-12-10
"2 Forest Mesa, Round Rock TX 78664",78664,400000,30.518621,-97.602622,7682.0,Round Rock ISD,2015-12-11
"131 Serene HOLW, Buda TX 78610",78610,200000,30.089131,-97.857621,5205.0,Hays ISD,2015-12-13
"10906 Keystone BND, Austin TX 78750",78750,500000,30.433123,-97.798601,9225.0,Round Rock ISD,2015-12-10
"21429 Coyote TRL, Lago Vista TX 78645",78645,60000,30.470386,-97.989415,2618.0,Lago Vista ISD,2015-12-11
"351 Paddington DR, Kyle TX 78640",78640,200000,30.008226,-97.836312,4975.0,Hays ISD,2015-12-14
"30 Wildwood DR # 102, Georgetown TX 78633",78633,200000,30.688531,-97.718889,5263.0,Georgetown ISD,2015-12-28
"12166 Metric BLVD # 204, Austin TX 78758",78758,100000,30.406791,-97.697862,2239.0,Austin ISD,2015-12-16
"100 Outfitter DR, Bastrop TX 78602",78602,200000,30.102155,-97.355658,3909.0,Bastrop ISD,2015-12-17
"9550 Savannah Ridge DR # 9, Austin TX 78726",78726,400000,30.43265,-97.833457,10392.0,Leander ISD,2015-12-19
"2702 Vernice LOOP, Killeen TX 76549",76549,100000,31.093037,-97.775368,3464.0,Killeen ISD,2015-12-29
"600 Garner Park DR, Georgetown TX 78628",78628,300000,30.575107,-97.76948,9788.0,Leander ISD,2015-12-22
"1514 Colton LN, Lockhart TX 78644",78644,200000,29.873556,-97.693598,284.0,Lockhart ISD,2015-12-19
"16700 Village Oak LOOP, Austin TX 78717",78717,200000,30.507398,-97.740802,3580.0,Round Rock ISD,2015-12-21
"14408 Pebble Run PATH, Manor TX 78653",78653,100000,30.367927,-97.520964,2955.0,Manor ISD,2015-12-21
"2909 Saint Paul Rivera, Round Rock TX 78665",78665,400000,30.55744,-97.621493,10701.0,Round Rock ISD,2015-12-15
"508 Pinon CV, Georgetown TX 78628",78628,300000,30.690784,-97.710111,8980.0,Georgetown ISD,2015-12-15
"8329 Angelo LOOP, Round Rock TX 78665",78665,300000,30.545982,-97.598995,9686.0,Hutto ISD,2015-12-17
"8249 Arezzo DR, Round Rock TX 78665",78665,300000,30.545982,-97.598995,10245.0,Hutto ISD,2015-12-17
"105 Linden LN, San Marcos TX 78666",78666,200000,29.820568,-97.93966,5291.0,San Marcos ISD,2015-12-15
"1700 APRICOT GLEN DR, Austin TX 78746",78746,700000,30.264283,-97.802448,15751.0,Eanes ISD,2015-12-17
"361 New Bridge DR, Kyle TX 78640",78640,200000,29.967399,-97.84704,383.0,Hays ISD,2015-12-28
"3313 Raspberry CV, Austin TX 78748",78748,600000,30.175195,-97.851549,12964.0,Austin ISD,2015-12-30
"4301 Valley Oaks DR, Leander TX 78641",78641,400000,30.567241,-97.773424,0.0,Leander ISD,2015-12-30
"10852 Doe Run RD, Lago Vista TX 78645",78645,400000,30.498847,-97.949259,5195.0,Leander ISD,2015-12-28
"101 Hogan Bluff CT, Georgetown TX 78633",78633,400000,30.717434,-97.738803,9013.0,Georgetown ISD,2015-12-23
"27 Long Creek RD, Austin TX 78737",78737,700000,30.212108,-97.983603,12717.0,Dripping Springs ISD,2015-01-20
"10001 Ivalenes Hope DR, Austin TX 78717",78717,400000,30.499547,-97.756104,8392.0,Round Rock ISD,2015-01-20
"127 Running Water ST, Georgetown TX 78633",78633,300000,30.71664,-97.7034,5763.0,Jarrell ISD,2015-01-20
"9904 Michael DL, Austin TX 78736",78736,300000,30.235451,-97.927109,4441.0,Austin ISD,2015-01-22
"10105 Woodland Village DR, Austin TX 78750",78750,200000,30.449325,-97.799124,4508.0,Round Rock ISD,2015-01-22
"2713 Hearthsong LOOP, Round Rock TX 78665",78665,200000,30.552181,-97.627261,3399.0,Round Rock ISD,2015-01-17
"413 Lismore ST, Hutto TX 78634",78634,300000,30.514681,-97.588276,4500.0,Hutto ISD,2015-01-18
"6807 Columbia DR, Austin TX 78723",78723,300000,30.319446,-97.682975,4659.0,Austin ISD,2015-01-22
"404 Trumpet Vine TRL, Cedar Park TX 78613",78613,200000,30.502451,-97.828122,4087.0,Leander ISD,2015-01-22
"102 Skyline DR, Wimberley TX 78676",78676,300000,30.035082,-98.099684,3749.0,Wimberley ISD,2015-01-23
"2200 Plainfield CT, Pflugerville TX 78660",78660,300000,30.48137,-97.577574,7577.0,Pflugerville ISD,2015-01-22
"2605 Barley Field PASS, Pflugerville TX 78660",78660,300000,30.461761,-97.583607,7650.0,Pflugerville ISD,2015-01-22
"112 Painted Bunting LN, Georgetown TX 78633",78633,300000,30.709888,-97.728386,4932.0,Georgetown ISD,2015-01-22
"13900 Marathon RD, Austin TX 78717",78717,200000,30.491763,-97.796723,6641.0,Leander ISD,2015-01-22
"2503 Ben Doran CT, Cedar Park TX 78613",78613,400000,30.46222,-97.855407,8228.0,Leander ISD,2015-02-18
"270 Crooked CRK, Buda TX 78610",78610,300000,30.091032,-97.865696,6595.0,Hays ISD,2015-01-23
"3408 Sophora CT, Round Rock TX 78681",78681,300000,30.53893,-97.73,7668.0,Round Rock ISD,2015-01-23
"8206 Two Coves DR, Austin TX 78730",78730,1000000,30.364865,-97.820349,21236.0,Austin ISD,2015-01-24
"408 Songwood DR, Spicewood TX 78669",78669,100000,30.512991,-98.14483,1393.0,Marble Falls ISD,2015-01-23
"406 Avenue B, Marble Falls TX 78654",78654,100000,30.569833,-98.268924,1674.0,Marble Falls ISD,2015-01-26
"2300 Montague ST, Austin TX 78741",78741,400000,30.219646,-97.698584,9818.0,Del Valle ISD,2015-01-27
"400 Thorndale RD, Taylor TX 76574",76574,50000,30.578617,-97.405905,2322.1,Taylor ISD,2015-04-17
"11409 Hillhaven DR, Austin TX 78748",78748,200000,30.15561,-97.836792,3501.0,Austin ISD,2015-01-29
"3009 Comal SPGS, Canyon Lake TX 78133",78133,500000,29.826527,-98.32565,7921.0,Comal ISD,2015-01-28
"5911 Belfast DR, Austin TX 78723",78723,300000,30.314867,-97.694618,5625.0,Austin ISD,2015-01-27
"1412 Rowan DR, Georgetown TX 78628",78628,300000,30.692043,-97.706692,7558.0,Georgetown ISD,2015-01-27
"1305 Leah LN, Round Rock TX 78665",78665,200000,30.497484,-97.631607,4131.0,Round Rock ISD,2015-01-28
"333 Fort Cobb CSWY, Georgetown TX 78628",78628,300000,30.575936,-97.768811,0.0,Leander ISD,2015-01-28
"307 Blessing Ranch RD, Liberty Hill TX 78642",78642,100000,30.728923,-97.921223,3310.0,Liberty Hill ISD,2015-01-28
"1509 Discovery BLVD, Cedar Park TX 78613",78613,300000,30.530917,-97.822494,5915.0,Leander ISD,2015-01-30
"1122 Terra ST, Round Rock TX 78665",78665,100000,30.555564,-97.671463,3159.0,Round Rock ISD,2015-01-30
"109 Highland Horizon, Austin TX 78717",78717,300000,30.49113,-97.723858,8100.0,Round Rock ISD,2015-02-01
"1409 CEDAR HILLS BLVD, Cedar Park TX 78613",78613,200000,30.525853,-97.85339,4978.0,Leander ISD,2015-02-02
"17913 Basket Flower BND, Elgin TX 78621",78621,200000,30.345037,-97.433701,3995.0,Elgin ISD,2015-02-02
"18413 Dry Brook LOOP, Pflugerville TX 78660",78660,300000,30.452744,-97.575391,7053.0,Pflugerville ISD,2015-01-29
"207 Kerley DR, Hutto TX 78634",78634,200000,30.536563,-97.548559,3864.0,Hutto ISD,2015-02-11
"2403 McCall, Austin TX 78703",78703,1000000,30.29379,-97.763421,20000.0,Austin ISD,2015-01-30
"21903 Plockton DR, Spicewood TX 78669",78669,300000,30.398299,-98.048152,1029.0,Lake Travis ISD,2015-01-30
"294 Texas Oak DR, Cedar Creek TX 78612",78612,100000,30.027908,-97.550692,691.0,Bastrop ISD,2015-01-31
"8305 Fern Bluff AVE, Round Rock TX 78681",78681,300000,30.522416,-97.721911,7501.0,Round Rock ISD,2015-02-02
"3901 Tattershall LN, Austin TX 78727",78727,200000,30.417231,-97.720656,4273.0,Austin ISD,2015-02-04
"2105 Monticello CT, Round Rock TX 78665",78665,300000,30.578383,-97.653738,9812.0,Round Rock ISD,2015-02-05
"4416 Zacharys RUN, Cedar Park TX 78613",78613,400000,30.525809,-97.756125,8644.0,Round Rock ISD,2015-02-12
"8404 Carranzo DR, Austin TX 78735",78735,2000000,30.272594,-97.87643,16554.0,Austin ISD,2015-02-10
"12091 Fm 2657, Kempner TX 76539",76539,400000,31.015782,-97.915959,5929.0,Lampasas ISD,2015-02-05
"2000 Mistywood DR, Austin TX 78746",78746,600000,30.26373,-97.806455,11915.0,Eanes ISD,2015-02-06
"18144 Basket Flower BND, Elgin TX 78621",78621,100000,30.347384,-97.429719,3928.0,Elgin ISD,2015-02-06
"8831 Mountain Path CIR, Austin TX 78759",78759,500000,30.385264,-97.755669,9194.0,Austin ISD,2015-02-09
"4407 Magin Meadow DR, Austin TX 78744",78744,100000,30.179025,-97.759678,1538.0,Austin ISD,2015-02-06
"106 The Hills DR, Austin TX 78738",78738,500000,30.339718,-97.979731,11482.0,Lake Travis ISD,2015-02-06
"9 Rambling Creek CIR, Wimberley TX 78676",78676,200000,30.02703,-98.129468,2465.0,Wimberley ISD,2015-02-06
"2524 Crenshaw DR, Round Rock TX 78664",78664,300000,30.515791,-97.60283,6753.0,Round Rock ISD,2015-02-10
"1711 Gold Splash, Harker Heights TX 76548",76548,300000,31.048022,-97.637211,0.0,Killeen ISD,2015-02-09
"203 Antigua WAY, Austin TX 78738",78738,500000,30.352373,-97.999529,3078.0,Lake Travis ISD,2015-02-11
"201 Antigua WAY, Austin TX 78738",78738,400000,30.352217,-97.999617,3078.0,Lake Travis ISD,2015-02-11
"1002 Taffy CT, Austin TX 78704",78704,600000,30.234313,-97.771243,6142.0,Austin ISD,2015-02-13
"12605 Waynespur LN, Elgin TX 78621",78621,100000,30.342889,-97.436146,3602.0,Elgin ISD,2015-02-12
"2008 Peoples ST, Austin TX 78702",78702,300000,30.267971,-97.717995,3664.0,Austin ISD,2015-02-11
"2909 Corbin LN, Austin TX 78704",78704,400000,30.238622,-97.772188,8297.0,Austin ISD,2015-02-28
"2217 Voyageurs LN, Austin TX 78747",78747,300000,30.152722,-97.784297,5869.0,Austin ISD,2015-02-10
"1807 Valle Verde DR, Leander TX 78641",78641,400000,30.548071,-97.784183,9741.0,Leander ISD,2015-02-09
"100 Hidden Bear RD, Liberty Hill TX 78642",78642,400000,30.715948,-97.916586,6039.67,Liberty Hill ISD,2015-02-21
"2203 Colinas Verdas RD, Leander TX 78641",78641,300000,30.550462,-97.789939,8988.0,Leander ISD,2015-02-09
"3703 Tekoa CV, Austin TX 78746",78746,2000000,30.325947,-97.783992,18923.0,Eanes ISD,2015-02-11
"9616 Beechnut, Austin TX 78748",78748,200000,30.175271,-97.818964,4828.0,Austin ISD,2015-02-11
"705 Champions DR, Georgetown TX 78628",78628,600000,30.699155,-97.690417,10491.0,Georgetown ISD,2015-02-13
"5136 Bluestar, Austin TX 78739",78739,400000,30.192758,-97.870169,7455.0,Austin ISD,2015-02-15
"3451 Mayfield Ranch BLVD # 314, Round Rock TX 78681",78681,300000,30.551804,-97.740583,4599.0,Round Rock ISD,2015-02-15
"769 W Bartlett DR, Buda TX 78610",78610,400000,30.066302,-97.921216,7821.0,Hays ISD,2015-02-16
"1840 Burton DR # 204, Austin TX 78741",78741,60000,30.235146,-97.730012,739.0,Austin ISD,2015-02-16
"20809 Windmill Ridge ST, Pflugerville TX 78660",78660,200000,30.485542,-97.566894,6862.0,Pflugerville ISD,2015-02-26
"13400 Briarwick DR # 304, Austin TX 78729",78729,300000,30.465921,-97.767057,6300.0,Round Rock ISD,2015-02-18
"2911 Acopio Bend, Austin TX 78745",78745,200000,30.192423,-97.830283,4500.0,Austin ISD,2015-02-24
"148 Bufflehead, Leander TX 78641",78641,200000,30.636486,-97.875081,4706.0,Leander ISD,2015-02-18
"2401 E 6th ST # 6087, Austin TX 78702",78702,200000,30.259186,-97.716179,3819.0,Austin ISD,2015-02-18
"8104 Hawick DR, Round Rock TX 78681",78681,200000,30.500112,-97.730058,4241.0,Round Rock ISD,2015-02-19
"6304 Latigo PASS, Austin TX 78749",78749,300000,30.231285,-97.86613,5303.0,Austin ISD,2015-03-16
"2600 Rough Berry, Pflugerville TX 78660",78660,300000,30.459431,-97.588647,8047.0,Pflugerville ISD,2015-02-22
"1603 Wild Orchard DR, Pflugerville TX 78660",78660,200000,30.459255,-97.632991,3473.0,Pflugerville ISD,2015-02-23
"521 Celery LOOP, Austin TX 78748",78748,200000,30.176939,-97.789302,4048.0,Austin ISD,2015-03-07
"9417 Altona WAY, Austin TX 78717",78717,400000,30.487013,-97.76245,7634.0,Round Rock ISD,2015-02-26
"340 Housefinch LOOP, Leander TX 78641",78641,200000,30.633016,-97.8731,4846.0,Leander ISD,2015-02-27
"144 Old Firetower RD, Bastrop TX 78602",78602,200000,30.177867,-97.261481,3883.78,Bastrop ISD,2015-02-25
"12801 Monte Castillo PKWY, Austin TX 78732",78732,600000,30.407978,-97.869348,16659.0,Leander ISD,2015-02-27
"5617 War Admiral DR, Del Valle TX 78617",78617,100000,30.171518,-97.60904,2895.0,Del Valle ISD,2015-03-20
"159 Manawianui DR, Bastrop TX 78602",78602,200000,30.083788,-97.276286,123.0,Bastrop ISD,2015-03-01
"20520 Farm Pond LN, Pflugerville TX 78660",78660,200000,30.481232,-97.568191,5734.0,Pflugerville ISD,2015-03-02
"12903 Powderhorn ST, Austin TX 78727",78727,200000,30.420732,-97.69084,4068.0,Pflugerville ISD,2015-03-14
"4687 Rockcliff RD, Austin TX 78746",78746,2000000,30.336759,-97.792566,18490.0,Eanes ISD,2015-03-03
"12519 Eagle Nest DR, Buda TX 78610",78610,200000,30.121376,-97.86276,4256.0,Hays ISD,2015-03-06
"13333 Amasia DR, Austin TX 78729",78729,300000,30.455598,-97.759943,5915.0,Round Rock ISD,2015-03-05
"713 N West ST, Burnet TX 78611",78611,100000,30.764353,-98.231272,1818.0,Burnet ISD,2015-02-27
"2701 Tradewind DR, Spicewood TX 78669",78669,300000,30.364474,-98.026265,4057.0,Lake Travis ISD,2015-03-06
"4103 Narrow Ridge DR, Austin TX 78730",78730,1000000,30.361921,-97.849786,20838.0,Leander ISD,2015-03-06
"7501 Saint Cecelia ST, Austin TX 78757",78757,400000,30.350065,-97.732925,6972.0,Austin ISD,2015-03-06
"802 Fairmont, Georgetown TX 78628",78628,200000,30.687981,-97.712333,5176.0,Georgetown ISD,2015-04-08
"9900 Willers WAY, Austin TX 78748",78748,200000,30.177005,-97.83037,4380.0,Austin ISD,2015-03-05
"1314 Newning AVE # A, Austin TX 78704",78704,700000,30.249535,-97.74502,11011.0,Austin ISD,2015-03-06
"3412 Bratton Ridge XING, Austin TX 78728",78728,200000,30.461907,-97.681487,3816.0,Round Rock ISD,2015-03-05
"331 Tower DR, Kyle TX 78640",78640,200000,29.970011,-97.845355,3690.0,Hays ISD,2015-03-05
"1600 Barton Springs RD # 4301, Austin TX 78704",78704,1000000,30.262345,-97.761528,15413.0,Austin ISD,2015-03-08
"7124 Via Correto DR, Austin TX 78749",78749,500000,30.218636,-97.886411,9958.0,Austin ISD,2015-03-06
"1509 Alameda DR, Austin TX 78704",78704,600000,30.246278,-97.742778,9028.0,Austin ISD,2015-03-12
"1619 Mohle DR, Austin TX 78703",78703,800000,30.300728,-97.755644,12375.0,Austin ISD,2015-03-05
"9625 Brians PATH, Austin TX 78717",78717,600000,30.496747,-97.757042,628.0,Round Rock ISD,2015-01-15
"809 Dogwood TRL, Cedar Park TX 78613",78613,300000,30.508897,-97.835052,5525.0,Leander ISD,2015-01-17
"13420 Lyndhurst ST # 501, Austin TX 78729",78729,200000,30.469415,-97.783878,3931.0,Round Rock ISD,2015-01-30
"714 Ann Taylor DR, Austin TX 78745",78745,200000,30.189045,-97.798504,4465.0,Austin ISD,2015-01-31
"300 W Skyview RD, Austin TX 78752",78752,400000,30.32454,-97.717198,6881.0,Austin ISD,2015-02-07
"5635 Signal PT, Austin TX 78724",78724,100000,30.2883,-97.646436,1975.0,Manor ISD,2015-01-29
"714 Los Robles RD, Leander TX 78641",78641,200000,30.584021,-97.869013,3864.0,Leander ISD,2015-02-01
"2414 Intrepid DR, Buda TX 78610",78610,200000,30.071713,-97.8167,4140.0,Hays ISD,2015-02-14
"10804 Split Stone WAY, Austin TX 78739",78739,400000,30.195871,-97.90443,8966.0,Austin ISD,2015-02-04
"400 Caliche RD, Wimberley TX 78676",78676,200000,30.030941,-98.092929,2058.0,Wimberley ISD,2015-02-04
"2606 Rogers AVE, Austin TX 78722",78722,500000,30.283237,-97.714486,2419.0,Austin ISD,2015-02-04
"543 W Overlook Mountain RD, Buda TX 78610",78610,600000,30.118307,-97.904142,12426.0,Hays ISD,2015-02-10
"318 Hyltin ST, Hutto TX 78634",78634,300000,30.553425,-97.556271,7184.0,Hutto ISD,2015-02-02
"410 Blessing Ranch RD, Liberty Hill TX 78642",78642,100000,30.726306,-97.919043,1071.0,Liberty Hill ISD,2015-02-04
"1514 AMBLING TRL, Cedar Park TX 78613",78613,300000,30.519338,-97.862828,0.0,Leander ISD,2015-02-03
"6703 Modesto ST, Austin TX 78757",78757,400000,30.342182,-97.736043,6899.0,Austin ISD,2015-02-03
"8124 Amelia CV, Austin TX 78750",78750,700000,30.396535,-97.802712,12393.0,Austin ISD,2015-04-16
"2116 Granite Springs RD, Leander TX 78641",78641,300000,30.56269,-97.801794,7121.0,Leander ISD,2015-02-03
"1103 Whitewater DR, Bertram TX 78605",78605,600000,30.618686,-98.095582,6139.0,Burnet ISD,2015-02-03
"519 Williams WAY, Cedar Park TX 78613",78613,400000,30.522719,-97.755448,8583.0,Round Rock ISD,2015-02-05
"2110 Bandera PATH, Round Rock TX 78665",78665,300000,30.503995,-97.625867,7234.0,Round Rock ISD,2015-02-06
"828 Oatmeal DR, Pflugerville TX 78660",78660,200000,30.430671,-97.659404,6385.0,Pflugerville ISD,2015-02-05
"2103 Nogales TRL, Austin TX 78744",78744,100000,30.181584,-97.766473,2199.0,Austin ISD,2015-02-13
"2016 Kenwood AVE, Austin TX 78704",78704,800000,30.239066,-97.743857,12384.0,Austin ISD,2015-02-04
"11603 Richland RD, Coupland TX 78615",78615,100000,30.46106,-97.47203,3382.0,Pflugerville ISD,2015-02-05
"7606 Almond CV, Austin TX 78750",78750,600000,30.381233,-97.789606,9896.0,Austin ISD,2015-03-27
"3414 Flowstone LN, Round Rock TX 78681",78681,200000,30.558236,-97.738432,4285.0,Round Rock ISD,2015-02-08
"1505 Pasadena DR, Austin TX 78757",78757,400000,30.345223,-97.725862,7583.0,Austin ISD,2015-03-07
"3900 Threadgill ST # 22, Austin TX 78723",78723,400000,30.290874,-97.700549,7872.0,Austin ISD,2015-02-12
"2308 Fortune DR, Austin TX 78704",78704,900000,30.25297,-97.780003,15437.0,Austin ISD,2015-02-09
"1304 Piedmont AVE, Austin TX 78757",78757,400000,30.342789,-97.723735,8286.0,Austin ISD,2015-02-12
"1823 Creole DR, Austin TX 78727",78727,300000,30.425063,-97.685502,7902.0,Pflugerville ISD,2015-02-26
"154 Western DR, Kyle TX 78640",78640,100000,30.003454,-97.878449,2759.0,Hays ISD,2015-02-10
"115 Clubhouse DR, Lakeway TX 78734",78734,400000,30.361262,-97.967466,8889.0,Lake Travis ISD,2015-04-10
"701 S Oak Forest DR, Dripping Springs TX 78620",78620,1000000,30.279285,-98.112598,17602.0,Dripping Springs ISD,2015-02-21
"1703 Apache TRL, Round Rock TX 78665",78665,200000,30.499905,-97.638735,3785.52,Round Rock ISD,2015-02-10
"2008 Whitestone DR, Austin TX 78745",78745,300000,30.214913,-97.800662,4490.0,Austin ISD,2015-02-13
"313 Lakewood DR, Burnet TX 78611",78611,200000,30.849332,-98.392354,3612.0,Burnet ISD,2015-02-13
"9115 TEXAS SUN DR, Austin TX 78748",78748,200000,30.178593,-97.8147,3362.0,Austin ISD,2015-02-16
"236 Moonstone DR, Jarrell TX 76537",76537,100000,30.805345,-97.597049,2610.0,Jarrell ISD,2015-02-16
"5105 Shoal Creek BLVD, Austin TX 78756",78756,400000,30.326144,-97.744797,8894.0,Austin ISD,2015-02-13
"1905 Holly Hill DR, Austin TX 78746",78746,800000,30.261544,-97.802193,12524.0,Eanes ISD,2015-02-18
"13410 Onion Creek DR, Manchaca TX 78652",78652,400000,30.116328,-97.821757,6144.0,Austin ISD,2015-02-13
"19220 Pencil Cactus DR, Pflugerville TX 78660",78660,200000,30.475197,-97.624069,4718.0,Pflugerville ISD,2015-02-13
"3006 Pin Oak CT, Austin TX 78704",78704,300000,30.23907,-97.77461,6364.0,Austin ISD,2015-02-13
"810 Cactus DR, Round Rock TX 78681",78681,200000,30.494351,-97.688934,3191.0,Round Rock ISD,2015-02-13
"12608 Sky Harbor DR, Del Valle TX 78617",78617,100000,30.168092,-97.62653,2298.0,Del Valle ISD,2015-02-12
"18004 Moreto LOOP, Pflugerville TX 78660",78660,200000,30.480076,-97.641336,5600.0,Pflugerville ISD,2015-02-18
"11203 Ranch Road 2222 # 108, Austin TX 78730",78730,200000,30.399504,-97.851519,5123.0,Leander ISD,2015-03-06
"8301 Spring Valley DR, Austin TX 78736",78736,300000,30.239194,-97.893941,4830.0,Austin ISD,2015-02-18
"6212 Northern Dancer DR, Austin TX 78746",78746,1000000,30.319638,-97.817423,17956.0,Eanes ISD,2015-02-20
"2516 Mirasol LOOP, Round Rock TX 78681",78681,400000,30.536828,-97.719963,7231.0,Round Rock ISD,2015-03-12
"165 Willow Leaf LN, Buda TX 78610",78610,200000,30.079032,-97.813089,4054.0,Hays ISD,2015-02-18
"100 Clara Rose CT, Austin TX 78717",78717,300000,30.487921,-97.729594,0.0,Round Rock ISD,2015-02-19
"12908 Buckwheat PASS, Buda TX 78610",78610,300000,30.108572,-97.857606,4927.0,Hays ISD,2015-02-20
"662 N County Line RD, Elgin TX 78621",78621,500000,30.376763,-97.283308,2729.0,Elgin ISD,2015-02-19
"10928 Mint Julep DR, Austin TX 78748",78748,200000,30.148628,-97.807878,5045.0,Austin ISD,2015-02-21
"908 Jewell ST, Austin TX 78704",78704,900000,30.251971,-97.758933,15375.0,Austin ISD,2015-02-19
"6510 Moonglow DR, Austin TX 78724",78724,100000,30.297014,-97.644824,1854.0,Manor ISD,2015-02-18
"4001 Colina CV, Round Rock TX 78681",78681,400000,30.545192,-97.738302,10357.0,Round Rock ISD,2015-02-20
"605 AMARYLLIS AVE, Cedar Park TX 78613",78613,200000,30.53506,-97.843036,3426.0,Leander ISD,2015-02-20
"1606 Normeadows CIR, Round Rock TX 78681",78681,200000,30.520096,-97.700851,3564.0,Round Rock ISD,2015-02-20
"112 San Jacinto Creek CV, Georgetown TX 78633",78633,300000,30.7279,-97.758662,8071.0,Georgetown ISD,2015-02-10
"1407 S Redondo DR, Austin TX 78721",78721,200000,30.280342,-97.682152,2231.0,Austin ISD,2015-02-20
"93 SANTA MARIA ST, Georgetown TX 78628",78628,400000,30.623034,-97.812579,10662.0,Liberty Hill ISD,2015-02-20
"2124 Burton DR # 249, Austin TX 78741",78741,100000,30.231786,-97.733577,1020.0,Austin ISD,2015-02-20
"713 Russet Valley DR, Cedar Park TX 78613",78613,200000,30.49675,-97.826984,3544.0,Leander ISD,2015-02-27
"3000 Dusty Chisolm TRL, Pflugerville TX 78660",78660,300000,30.460783,-97.577534,7088.0,Pflugerville ISD,2015-02-26
"2308 Holly ST, Austin TX 78702",78702,1000000,30.251733,-97.720476,17799.0,Austin ISD,2015-02-20
"5008 Summerset TRL, Austin TX 78749",78749,300000,30.229545,-97.84595,6600.0,Austin ISD,2015-02-22
"506 Strichen DR, Spicewood TX 78669",78669,400000,30.415398,-98.039798,7322.0,Lake Travis ISD,2015-02-26
"2227 Ada LN, Round Rock TX 78664",78664,200000,30.53356,-97.665688,3251.0,Round Rock ISD,2015-02-26
"525 Victoria DR, Cedar Park TX 78613",78613,400000,30.494809,-97.848691,10096.0,Leander ISD,2015-03-02
"103 Woodley RD, Leander TX 78641",78641,200000,30.575184,-97.862909,4135.0,Leander ISD,2015-03-04
"127 Keaau CT, Bastrop TX 78602",78602,300000,30.078108,-97.292086,4849.0,Bastrop ISD,2015-02-26
"2216 Lookout Range DR, Leander TX 78641",78641,300000,30.529309,-97.871529,6298.0,Leander ISD,2015-02-27
"4332 Teravista Club DR # 61, Round Rock TX 78665",78665,300000,30.575078,-97.669447,7439.0,Round Rock ISD,2015-03-04
"2924 Cuero CV, Round Rock TX 78681",78681,600000,30.54077,-97.700438,10719.0,Round Rock ISD,2015-03-01
"144 Walter WAY, Jarrell TX 76537",76537,300000,30.820525,-97.612857,5700.0,Jarrell ISD,2015-02-28
"210 Lavaca ST # 1811, Austin TX 78701",78701,1000000,30.265731,-97.746563,18205.47,Austin ISD,2015-02-27
"511 Beardsley LN, Austin TX 78746",78746,1000000,30.308386,-97.850965,12668.0,Eanes ISD,2015-03-06
"1309 Ledbetter ST, Round Rock TX 78681",78681,100000,30.513696,-97.695876,4136.0,Round Rock ISD,2015-03-03
"2601 Tejas TRL, Leander TX 78641",78641,100000,30.543295,-97.848501,3649.0,Leander ISD,2015-03-01
"9400 Epic CT, Austin TX 78726",78726,400000,30.431033,-97.834998,7342.21,Leander ISD,2015-03-05
"3929 Outpost TRCE, Lago Vista TX 78645",78645,300000,30.445436,-98.005945,297.0,Lago Vista ISD,2015-04-07
"3801 Spirit Lake CV, Austin TX 78746",78746,2000000,30.326172,-97.78117,21508.0,Eanes ISD,2015-02-27
"2022 Rundell PL, Austin TX 78704",78704,700000,30.253987,-97.774928,10684.0,Austin ISD,2015-03-06
"2311 Water ST, Bastrop TX 78602",78602,80000,30.12815,-97.318937,2911.0,Bastrop ISD,2015-03-14
"713 Gabriel Mills DR, Round Rock TX 78664",78664,200000,30.509041,-97.659959,4156.0,Round Rock ISD,2015-03-05
"1500 Continental PASS, Cedar Park TX 78613",78613,200000,30.517943,-97.851378,4773.0,Leander ISD,2015-03-05
"314 Ledge Stone DR, Austin TX 78737",78737,400000,30.209251,-97.978358,9429.0,Dripping Springs ISD,2015-03-06
"1104 Hillridge CT, Round Rock TX 78665",78665,400000,30.564016,-97.674984,11050.0,Round Rock ISD,2015-03-06
"11502 Saddle Mountain TRL, Austin TX 78739",78739,400000,30.164737,-97.862432,5729.0,Austin ISD,2015-03-12
"8256 S US Highway 183, Gonzales TX 78629",78629,100000,29.410772,-97.375788,470.0,Gonzales ISD,2015-03-05
"8802 BLACK OAK ST, Austin TX 78729",78729,300000,30.457954,-97.771174,5219.0,Round Rock ISD,2015-03-05
"2020 Maplewood DR, Leander TX 78641",78641,300000,30.573972,-97.884951,6500.0,Leander ISD,2015-03-06
"400 San Jacinto ST, Smithville TX 78957",78957,100000,30.000766,-97.157618,152.0,Smithville ISD,2015-01-06
"3003 E 17th ST, Austin TX 78702",78702,400000,30.279876,-97.704775,5191.0,Austin ISD,2015-01-01
"1904 Rio Seco, Leander TX 78641",78641,400000,30.546288,-97.896247,11468.0,Leander ISD,2015-01-02
"3601 Roosevelt CV, Lago Vista TX 78645",78645,200000,30.432315,-98.003106,4150.0,Lago Vista ISD,2015-01-04
"5113 Scottish Thistle DR, Austin TX 78739",78739,400000,30.191886,-97.870358,8000.0,Austin ISD,2015-01-12
"2513 Glen Field DR, Cedar Park TX 78613",78613,200000,30.539808,-97.844612,3130.0,Leander ISD,2015-01-03
"528 Rancho Verde, Leander TX 78641",78641,300000,30.566411,-97.869514,6825.0,Leander ISD,2015-01-04
"11428 Mordred CT, Austin TX 78739",78739,400000,30.182011,-97.893474,8695.0,Austin ISD,2015-01-06
"166 Comanche Path, Other TX 78003",78003,200000,29.691817,-98.985598,3074.0,Other,2015-01-08
"9525 Capital Of Texas HWY # 222, Austin TX 78759",78759,200000,30.387631,-97.748368,4378.0,Austin ISD,2015-01-13
"2700 Nottingham LN, Austin TX 78704",78704,300000,30.232916,-97.75158,5442.0,Austin ISD,2015-03-30
"5820 Berkman DR # 214, Austin TX 78723",78723,200000,30.312915,-97.693593,2900.0,Austin ISD,2015-01-09
"5820 Berkman DR # 209, Austin TX 78723",78723,200000,30.312915,-97.693593,2900.0,Austin ISD,2015-01-09
"1402 Singleton AVE # B, Austin TX 78702",78702,300000,30.276895,-97.714683,4356.0,Austin ISD,2015-01-11
"11528 Gaelic DR, Austin TX 78754",78754,200000,30.355653,-97.619573,5685.0,Manor ISD,2015-01-11
"6213 Adair DR, Austin TX 78754",78754,200000,30.358503,-97.620705,5496.0,Manor ISD,2015-01-11
"10503 Ronwood DR, Austin TX 78750",78750,400000,30.431456,-97.806622,7628.0,Round Rock ISD,2015-01-29
"2919 Addie LN, Georgetown TX 78628",78628,200000,30.660732,-97.697423,5170.0,Georgetown ISD,2015-01-15
"20421 Crooked Stick DR, Pflugerville TX 78660",78660,300000,30.482268,-97.570896,7626.0,Pflugerville ISD,2015-01-12
"2904 Saint Federico WAY, Round Rock TX 78665",78665,300000,30.558143,-97.619264,8612.0,Round Rock ISD,2015-02-20
"2302 Rundell PL, Austin TX 78704",78704,600000,30.255101,-97.777268,11700.0,Austin ISD,2015-01-13
"5707 Avenue D, Austin TX 78752",78752,600000,30.323339,-97.719917,3629.0,Austin ISD,2015-01-13
"6012 Sabino DR, Spicewood TX 78669",78669,500000,30.351424,-98.085566,0.0,Lake Travis ISD,2015-01-15
"9401 Sawyer Fay LN, Austin TX 78748",78748,300000,30.166444,-97.796516,7000.0,Austin ISD,2015-01-12
"8516 Rimini CV, Round Rock TX 78665",78665,300000,30.543359,-97.602391,9000.0,Hutto ISD,2015-01-12
"18320 Cloudmore LN, Elgin TX 78621",78621,100000,30.356929,-97.417851,4600.0,Elgin ISD,2015-01-12
"1515 Madison AVE, Austin TX 78757",78757,400000,30.344524,-97.726502,6188.0,Austin ISD,2015-01-14
"607 N Main ST, Elgin TX 78621",78621,100000,30.352245,-97.372423,2689.0,Elgin ISD,2015-01-12
"10 Tanglewood TRL, San Marcos TX 78666",78666,200000,29.900697,-97.95222,5004.47,San Marcos ISD,2015-01-25
"2612 Blake ST, Austin TX 78748",78748,300000,30.173345,-97.836921,5192.0,Austin ISD,2015-01-12
"1702 S Lamar BLVD # 19, Austin TX 78704",78704,400000,30.250715,-97.76613,6483.0,Austin ISD,2015-01-16
"17924 Narsitin LN, Pflugerville TX 78660",78660,200000,30.470909,-97.629176,4493.0,Pflugerville ISD,2015-01-16
"1112 Daylily LOOP, Georgetown TX 78626",78626,400000,30.588942,-97.664787,10601.53,Georgetown ISD,2015-01-18
"1609 Hidden Springs PATH, Round Rock TX 78665",78665,200000,30.56962,-97.666616,6802.0,Round Rock ISD,2015-01-16
"15400 Fitzhugh RD, Dripping Springs TX 78620",78620,200000,30.246135,-98.031001,3601.0,Dripping Springs ISD,2015-07-13
"100 Grays CIR, Liberty Hill TX 78642",78642,200000,30.665763,-98.015705,3789.0,Liberty Hill ISD,2015-01-15
"6812 Via Correto DR, Austin TX 78749",78749,500000,30.215348,-97.882756,11517.0,Austin ISD,2015-01-16
"16801 Constantinople LN, Round Rock TX 78664",78664,200000,30.465156,-97.651982,4893.0,Pflugerville ISD,2015-01-15
"200 Dillo TRL, Liberty Hill TX 78642",78642,300000,30.682016,-97.865689,6017.0,Liberty Hill ISD,2015-01-16
"105 Rim Rock DR, Georgetown TX 78628",78628,300000,30.615027,-97.708947,5041.0,Georgetown ISD,2015-01-21
"101 Colt LOOP, Kyle TX 78640",78640,200000,29.998612,-97.883724,3461.76,Hays ISD,2015-01-21
"5736 Brittlyns, Austin TX 78730",78730,500000,30.384439,-97.851755,8412.73,Leander ISD,2015-01-21
"2428 Elara DR, Austin TX 78725",78725,200000,30.213763,-97.638282,3204.0,Del Valle ISD,2015-01-25
"4109 Gandara BND, Austin TX 78738",78738,500000,30.316771,-97.959731,8036.0,Lake Travis ISD,2015-04-06
"11 Pebblebrook LN, Wimberley TX 78676",78676,200000,30.02863,-98.105477,3946.0,Wimberley ISD,2015-01-21
"5135 Ganymede DR, Austin TX 78727",78727,200000,30.431555,-97.727771,4177.0,Austin ISD,2015-01-21
"2510 Kopperl CT, Cedar Park TX 78613",78613,500000,30.464375,-97.851085,11413.0,Leander ISD,2015-02-12
"3909 Benetton WAY, Leander TX 78641",78641,500000,30.526729,-97.899469,15217.0,Leander ISD,2015-01-23
"14204 Naruna WAY, Pflugerville TX 78660",78660,300000,30.427891,-97.660936,6341.0,Pflugerville ISD,2015-01-23
"230 Treetop WAY, Buda TX 78610",78610,300000,30.110367,-97.85601,6179.0,Hays ISD,2015-02-02
"1911 Aberdeen DR, Round Rock TX 78664",78664,100000,30.528782,-97.685331,2607.0,Round Rock ISD,2015-01-22
"4709 Depew AVE, Austin TX 78751",78751,500000,30.307708,-97.716345,9391.0,Austin ISD,2015-01-23
"2328 Rodeo DR, Austin TX 78727",78727,300000,30.428608,-97.693468,6445.0,Pflugerville ISD,2015-01-23
"102 Oak LN, Dripping Springs TX 78620",78620,100000,30.278258,-98.111054,1005.0,Dripping Springs ISD,2015-01-23
"6901 Riverton DR, Austin TX 78729",78729,200000,30.44561,-97.750173,3854.0,Round Rock ISD,2015-01-23
"1516 Shady Hillside PASS, Round Rock TX 78665",78665,300000,30.506325,-97.616125,1030.0,Round Rock ISD,2015-02-05
"3303 Mcelroy DR, Austin TX 78757",78757,400000,30.357758,-97.74401,8584.0,Austin ISD,2015-01-24
"7010 Deborah DR, Austin TX 78752",78752,300000,30.333898,-97.709415,5369.0,Austin ISD,2015-01-24
"1203 Wood Creek DR, Cedar Park TX 78613",78613,200000,30.523764,-97.849191,5079.0,Leander ISD,2015-02-09
"1101 Ruffed Grouse CV, Pflugerville TX 78660",78660,200000,30.455804,-97.622294,4941.0,Pflugerville ISD,2015-01-30
"1600 Dittmar Oaks CV, Austin TX 78748",78748,200000,30.183629,-97.812779,3782.0,Austin ISD,2015-01-28
"13633 Tercel TRCE, Manor TX 78653",78653,200000,30.35737,-97.543954,6348.0,Manor ISD,2015-02-02
"409 S Timberhill DR, Granite Shoals TX 78654",78654,200000,30.581656,-98.376622,1951.0,Marble Falls ISD,2015-02-01
"8003 CATTLE DR, Austin TX 78749",78749,200000,30.205983,-97.844328,4527.0,Austin ISD,2015-02-02
"98 San Jacinto BLVD # 1406, Austin TX 78701",78701,2000000,30.261672,-97.742653,27144.0,Austin ISD,2015-01-29
"107 San Antonio RD, Georgetown TX 78633",78633,300000,30.72348,-97.705297,6429.0,Jarrell ISD,2015-02-11
"1031 Powell ST, Kyle TX 78640",78640,200000,30.027417,-97.887025,5346.0,Hays ISD,2015-01-30
"221 Cortona Lane, Georgetown TX 78628",78628,400000,30.629412,-97.816489,0.0,Liberty Hill ISD,2015-01-29
"1516 Twin CV, Kyle TX 78640",78640,200000,29.981031,-97.841015,4171.0,Hays ISD,2015-01-31
"114 Bluehaw DR, Georgetown TX 78628",78628,300000,30.689459,-97.708171,9329.0,Georgetown ISD,2015-01-30
"1000 E 14th ST, Austin TX 78702",78702,500000,30.274821,-97.729417,7914.0,Austin ISD,2015-01-30
"301 Seawind, Lakeway TX 78734",78734,400000,30.365307,-97.991706,9082.0,Lake Travis ISD,2015-02-03
"2502 Post Oak AVE, Other TX 76522",76522,40000,31.115995,-97.927,1745.38,Other,2015-02-04
"1603 W 39 1/2 ST # B, Austin TX 78756",78756,800000,30.309661,-97.747658,9077.0,Austin ISD,2015-02-04
"914 Terrace Mountain DR, West Lake Hills TX 78746",78746,1000000,30.303925,-97.806835,20762.0,Eanes ISD,2015-02-04
"7305 Colina Vista LOOP # B, Austin TX 78750",78750,300000,30.392809,-97.828479,7929.0,Leander ISD,2015-02-02
"1110 BRANDI CIR, Kyle TX 78640",78640,100000,29.996223,-97.856627,2588.0,Hays ISD,2015-02-03
"258 Jim Miller DR, Kyle TX 78640",78640,200000,30.002533,-97.880302,4110.0,Hays ISD,2015-03-23
"8518 Cahill DR # 24, Austin TX 78729",78729,200000,30.444784,-97.775509,4803.0,Round Rock ISD,2015-02-03
"811 Goldenrod, Kyle TX 78640",78640,200000,29.993257,-97.860465,3199.0,Hays ISD,2015-02-07
"6302 Bon Terra DR, Austin TX 78731",78731,500000,30.350032,-97.767776,11335.0,Austin ISD,2015-02-11
"1701 Bluebonnet LN, Kingsland TX 78639",78639,300000,30.644981,-98.450672,3257.0,Llano ISD,2015-02-03
"1616 Elmira RD, Austin TX 78721",78721,400000,30.283838,-97.686211,3316.0,Austin ISD,2015-02-06
"1413 Willow WAY, Round Rock TX 78664",78664,200000,30.509518,-97.659935,5000.0,Round Rock ISD,2015-02-10
"3811 Ashbury RD, Round Rock TX 78681",78681,400000,30.565882,-97.748929,0.0,Georgetown ISD,2015-02-18
"4501 Whispering Valley DR # 29, Austin TX 78727",78727,200000,30.415327,-97.730682,3428.0,Austin ISD,2015-02-19
"603 Davis ST # 1407, Austin TX 78701",78701,400000,30.260005,-97.739401,7334.0,Austin ISD,2015-02-26
"1200 Hawks Canyon CIR, Austin TX 78732",78732,800000,30.350982,-97.893925,16831.0,Leander ISD,2015-02-21
"2512 Auburn Chestnut, Pflugerville TX 78660",78660,200000,30.459269,-97.58983,7670.0,Pflugerville ISD,2015-02-22
"913 REDBUD TRL, West Lake Hills TX 78746",78746,800000,30.300024,-97.810859,13109.0,Eanes ISD,2015-02-20
"19412 Melwas WAY, Pflugerville TX 78660",78660,200000,30.463542,-97.567639,7047.0,Pflugerville ISD,2015-03-05
"1113 Highknoll LN, Georgetown TX 78628",78628,500000,30.65098,-97.686581,10000.0,Georgetown ISD,2015-02-23
"4409 Big Bend TRL, Taylor TX 76574",76574,200000,30.597612,-97.42477,4426.0,Taylor ISD,2015-02-23
"3408 Granite DR, Killeen TX 76549",76549,100000,31.088151,-97.766028,2343.0,Killeen ISD,2015-02-23
"2515 Auburn Chestnut, Pflugerville TX 78660",78660,300000,30.459187,-97.589247,8967.0,Pflugerville ISD,2015-02-22
"1309 Rockridge ST, Round Rock TX 78681",78681,200000,30.50124,-97.707905,4321.0,Round Rock ISD,2015-03-19
"3845 Ranch Road 2222 # 9, Austin TX 78731",78731,200000,30.341789,-97.764419,4318.0,Austin ISD,2015-03-07
"8513 Adirondack TRL, Austin TX 78759",78759,400000,30.382639,-97.761358,10728.0,Austin ISD,2015-03-04
"3705 Lajitas, Leander TX 78641",78641,1000000,30.532087,-97.892985,20094.0,Leander ISD,2015-02-24
"1201 Tinnin Ford RD # 39, Austin TX 78741",78741,200000,30.243635,-97.724288,1000.0,Austin ISD,2015-02-23
"3303 Plantation RD, Austin TX 78745",78745,200000,30.199085,-97.833825,3261.0,Austin ISD,2015-02-24
"204 Adriana LN, Hutto TX 78634",78634,200000,30.555904,-97.549069,4236.0,Hutto ISD,2015-03-20
"3608 Dali LN, Austin TX 78703",78703,2000000,30.303747,-97.774319,22628.0,Austin ISD,2015-02-24
"16 Sugar Shack DR, West Lake Hills TX 78746",78746,1000000,30.282228,-97.789488,11495.0,Eanes ISD,2015-03-06
"615 S Oak AVE, Luling TX 78648",78648,100000,29.674543,-97.646652,1901.0,Luling ISD,2015-02-24
"5905 Shanghai Pierce RD, Austin TX 78749",78749,300000,30.224728,-97.863523,4840.0,Austin ISD,2015-02-24
"1005 Maxines CV, Pflugerville TX 78660",78660,200000,30.440927,-97.657156,3249.0,Pflugerville ISD,2015-02-26
"130 Crampton CV, Austin TX 78737",78737,400000,30.201686,-97.968893,11500.0,Dripping Springs ISD,2015-02-25
"109 Sand Piper CV, Leander TX 78641",78641,200000,30.633905,-97.872146,4956.44,Leander ISD,2015-02-25
"11004 Coral Gables CT, Austin TX 78747",78747,400000,30.135945,-97.793053,7817.94,Austin ISD,2015-04-12
"1601 Faro DR # 1701, Austin TX 78741",78741,100000,30.233477,-97.711689,1677.0,Del Valle ISD,2015-02-26
"300 Crockett ST # 328, Austin TX 78704",78704,200000,30.244249,-97.754724,3480.0,Austin ISD,2015-02-26
"2807 Del Curto RD # G, Austin TX 78704",78704,800000,30.241906,-97.777815,0.0,Austin ISD,2015-02-25
"2000 E Gann Hill DR, Cedar Park TX 78613",78613,200000,30.524194,-97.865394,3672.0,Leander ISD,2015-02-26
"1228 Havre Lafitte DR, Austin TX 78746",78746,1000000,30.267709,-97.796053,20186.0,Eanes ISD,2015-02-25
"9952 Wading Pool PATH, Austin TX 78748",78748,200000,30.170292,-97.819643,4256.0,Austin ISD,2015-02-26
"8500 Abilene CV, Austin TX 78749",78749,300000,30.214524,-97.874316,5400.0,Austin ISD,2015-02-26
"140 GALLATIN CT, Austin TX 78737",78737,600000,30.189385,-97.992496,19735.0,Dripping Springs ISD,2015-02-27
"5924 Lomita Verde CIR, Austin TX 78749",78749,300000,30.209498,-97.87233,6023.0,Austin ISD,2015-04-03
"5602 HUDSON BEND RD, Austin TX 78734",78734,100000,30.421786,-97.931852,616.0,Lake Travis ISD,2015-03-01
"413 Fort Griffin TRL, Georgetown TX 78633",78633,300000,30.734763,-97.739746,5342.0,Georgetown ISD,2015-03-01
"223 Dana DR, Hutto TX 78634",78634,100000,30.505087,-97.571506,3353.0,Hutto ISD,2015-01-02
"224 Vailco LN, Austin TX 78738",78738,600000,30.331754,-97.957785,11996.0,Lake Travis ISD,2015-01-01
"226 Silo ST, San Marcos TX 78666",78666,200000,29.945386,-97.889898,4097.0,Hays ISD,2015-01-02
"2712 Rough Berry, Pflugerville TX 78660",78660,200000,30.460298,-97.587974,5200.0,Pflugerville ISD,2015-01-04
"725 Ridgeline RD, Other TX 76522",76522,200000,31.121621,-97.93806,3965.0,Other,2015-01-08
"391 Torrington DR, Austin TX 78737",78737,400000,30.195464,-97.990371,10249.0,Dripping Springs ISD,2015-01-22
"2711 Gholson DR, Cedar Park TX 78613",78613,600000,30.478273,-97.855319,11485.0,Leander ISD,2015-01-02
"1016 Sussex WAY, Round Rock TX 78665",78665,200000,30.530332,-97.643565,5929.0,Round Rock ISD,2015-01-02
"110 Kaden WAY, Lakeway TX 78738",78738,700000,30.329465,-98.000355,200899.0,Lake Travis ISD,2015-01-06
"500 Hesters Crossing RD # 306, Round Rock TX 78681",78681,100000,30.487773,-97.682421,1795.0,Round Rock ISD,2015-01-07
"105 Kaden WAY, Austin TX 78738",78738,700000,30.329714,-97.9996,2026.0,Lake Travis ISD,2015-01-07
"1028 Regency LN, Round Rock TX 78665",78665,200000,30.528219,-97.642813,4656.0,Round Rock ISD,2015-01-08
"6324 Poncha PASS, Austin TX 78749",78749,400000,30.227819,-97.869988,6656.73,Austin ISD,2015-01-09
"12812 Cricoli, Austin TX 78739",78739,700000,30.170938,-97.913058,0.0,Austin ISD,2015-01-07
"1116 Concan DR, Hutto TX 78634",78634,200000,30.531759,-97.558962,5281.0,Hutto ISD,2015-01-23
"4122 Shallow Creek, Other TX 77845",77845,300000,30.532394,-96.29307,927.0,Other,2015-01-09
"1303 Contour DR, Burnet TX 78611",78611,200000,30.678622,-98.398315,2504.0,Burnet ISD,2015-01-06
"202 The Oaks BLVD, Elgin TX 78621",78621,400000,30.211995,-97.440283,6857.0,Elgin ISD,2015-01-12
"251 Seth HVN, Dripping Springs TX 78620",78620,400000,30.217245,-98.135692,5962.0,Dripping Springs ISD,2015-01-19
"512 Cameron CV, Cedar Park TX 78613",78613,300000,30.524216,-97.753584,6212.0,Round Rock ISD,2015-03-08
"1205 Red River, Lockhart TX 78644",78644,40000,29.895214,-97.678091,1074.03,Lockhart ISD,2015-01-15
"9000 Braesgate CV, Austin TX 78717",78717,400000,30.498768,-97.746865,7554.0,Round Rock ISD,2015-02-13
"13409 Little Gull DR, Austin TX 78729",78729,300000,30.461708,-97.763274,6910.0,Round Rock ISD,2015-01-14
"8512 Whispering TRL, Austin TX 78737",78737,500000,30.229721,-97.907799,9700.0,Austin ISD,2015-01-15
"2716 Santa Bonita, Round Rock TX 78664",78664,300000,30.560867,-97.62367,9900.0,Round Rock ISD,2015-01-20
"5222 Pine PL, Austin TX 78744",78744,200000,30.198912,-97.749882,2565.0,Austin ISD,2015-09-25
"1 Rob Roy RD, Austin TX 78746",78746,900000,30.306209,-97.835499,14087.0,Eanes ISD,2015-09-25
"142 Wainscot Oak WAY, San Marcos TX 78666",78666,200000,29.949979,-97.888742,5628.0,Hays ISD,2015-09-25
"7609 Parkview CIR, Austin TX 78731",78731,700000,30.371031,-97.769981,12495.0,Austin ISD,2015-09-24
"114 Marina Village CV # 114, Austin TX 78734",78734,600000,30.375628,-97.986545,11620.0,Lake Travis ISD,2015-09-25
"1900 Miles AVE, Austin TX 78745",78745,200000,30.205972,-97.80257,5579.0,Austin ISD,2015-09-24
"103 W Lai CT, Bastrop TX 78602",78602,200000,30.090631,-97.29313,2828.0,Bastrop ISD,2015-09-24
"4417 Hank AVE, Austin TX 78745",78745,200000,30.223732,-97.780043,3271.0,Austin ISD,2015-09-24
"8330 Fathom CIR # 602, Austin TX 78750",78750,100000,30.43573,-97.777638,2919.0,Round Rock ISD,2015-09-24
"134 Great Frontier DR, Georgetown TX 78633",78633,300000,30.713763,-97.727305,6904.0,Georgetown ISD,2015-09-23
"1209 Firebush DR, Pflugerville TX 78660",78660,200000,30.439582,-97.607051,4650.0,Pflugerville ISD,2015-10-01
"2014 Parksville WAY, Cedar Park TX 78613",78613,200000,30.52192,-97.861597,4158.0,Leander ISD,2015-10-01
"111-119 S 33rd ST, Other TX 76504",76504,500000,31.099742,-97.359121,3000.0,Other,2015-09-28
"367 Cedar LN, Cedar Creek TX 78612",78612,100000,30.128526,-97.473422,605.0,Bastrop ISD,2015-09-29
"312 Cortona LN, Georgetown TX 78628",78628,400000,30.629554,-97.814564,0.0,Liberty Hill ISD,2015-10-02
"12304 Lostwood CIR, Austin TX 78748",78748,600000,30.147438,-97.856382,11412.0,Austin ISD,2015-10-02
"266 Monroe ST, Giddings TX 78942",78942,100000,30.178927,-96.926846,5465.0,Giddings ISD,2015-11-07
"6007 Abilene TRL, Austin TX 78749",78749,300000,30.220379,-97.867498,6174.0,Austin ISD,2015-10-01
"8111 Beauregard DR, Volente TX 78641",78641,800000,30.451528,-97.914916,20166.0,Leander ISD,2015-10-05
"1904 O'Callahan, Austin TX 78748",78748,200000,30.147628,-97.841214,4811.0,Austin ISD,2015-10-08
"2956 Clinton PL, Round Rock TX 78665",78665,300000,30.548754,-97.624221,6677.0,Round Rock ISD,2015-10-06
"1305 Wilson Heights DR, Austin TX 78746",78746,500000,30.281376,-97.826095,8180.0,Eanes ISD,2015-10-29
"802 San Jacinto ST, Lockhart TX 78644",78644,100000,29.870942,-97.682739,2759.0,Lockhart ISD,2015-10-06
"105 S Glen CV, Hutto TX 78634",78634,100000,30.606209,-97.600795,1140.0,Georgetown ISD,2015-10-09
"2501 Byfield DR, Cedar Park TX 78613",78613,200000,30.539169,-97.84529,3953.0,Leander ISD,2015-10-10
"14000 Ceylon Tea CIR, Pflugerville TX 78660",78660,200000,30.416975,-97.638378,4472.0,Pflugerville ISD,2015-10-09
"7513 Saint Phillip ST, Austin TX 78757",78757,300000,30.35018,-97.730542,6730.0,Austin ISD,2015-10-15
"2931 E 12th ST # 205, Austin TX 78702",78702,200000,30.275959,-97.704993,3421.0,Austin ISD,2015-10-11
"4805 Broadhill DR, Austin TX 78723",78723,200000,30.288941,-97.674585,3463.0,Austin ISD,2015-10-11
"2011 Idlewilde Run DR, Austin TX 78744",78744,200000,30.15931,-97.782087,3899.0,Austin ISD,2015-10-17
"3612 Josh LN, Austin TX 78730",78730,600000,30.362019,-97.861275,14561.0,Leander ISD,2015-10-14
"600 Guadalimar ST, Lockhart TX 78644",78644,100000,29.88753,-97.687522,2332.0,Lockhart ISD,2015-10-15
"1521 Tudor House RD, Pflugerville TX 78660",78660,200000,30.414032,-97.634019,4618.0,Pflugerville ISD,2015-10-16
"1189 Alamo ST, Austin TX 78702",78702,400000,30.272744,-97.717488,6938.0,Austin ISD,2015-10-16
"125 Summer Oak CT, Georgetown TX 78628",78628,600000,30.626211,-97.810549,10362.0,Liberty Hill ISD,2015-10-16
"502 Wiley ST, Hutto TX 78634",78634,200000,30.565275,-97.543591,3634.0,Hutto ISD,2015-10-16
"924 E 52nd ST # B, Austin TX 78751",78751,400000,30.312062,-97.712583,9157.0,Austin ISD,2015-10-28
"13109 Rochester LN, Austin TX 78753",78753,200000,30.403215,-97.647523,4857.0,Pflugerville ISD,2015-10-24
"2979 Overland ST, Round Rock TX 78681",78681,200000,30.510472,-97.721166,6137.0,Round Rock ISD,2015-10-31
"15827 Hamden CIR, Austin TX 78717",78717,300000,30.489257,-97.735149,8218.0,Round Rock ISD,2015-10-22
"2411 Raintree PATH, Round Rock TX 78664",78664,200000,30.511882,-97.649546,4050.0,Round Rock ISD,2015-10-15
"26 Pillow RD, Sunset Valley TX 78745",78745,300000,30.222804,-97.81142,4321.0,Austin ISD,2015-10-16
"7006 Apperson ST, Del Valle TX 78617",78617,200000,30.158587,-97.649422,2352.0,Del Valle ISD,2015-10-18
"2502 Rockingham DR, Austin TX 78704",78704,600000,30.251698,-97.783323,10384.0,Austin ISD,2015-10-18
"3600 S LAMAR BLVD # 202, Austin TX 78704",78704,300000,30.239377,-97.78892,0.0,Austin ISD,2015-10-19
"701 San Marco TRL, Georgetown TX 78628",78628,400000,30.628978,-97.817284,14000.0,Liberty Hill ISD,2015-10-21
"17500 Rannoch DR, Pflugerville TX 78660",78660,200000,30.468619,-97.638461,3398.0,Pflugerville ISD,2015-10-21
"201 Peggy DR, Liberty Hill TX 78642",78642,300000,30.648971,-97.838303,7320.0,Liberty Hill ISD,2015-10-23
"10328 W Darleen DR, Leander TX 78641",78641,500000,30.483869,-97.916975,6517.0,Leander ISD,2015-10-24
"243 Orchard Hill TRL, Buda TX 78610",78610,300000,30.075088,-97.810807,11338.0,Hays ISD,2015-10-26
"6904 Vail Ridge, Austin TX 78744",78744,200000,30.200217,-97.69974,6565.0,Del Valle ISD,2015-10-24
"3721 Geese RTE, Round Rock TX 78665",78665,200000,30.555498,-97.664802,4664.0,Round Rock ISD,2015-10-30
"21600 Cupola VW, Pflugerville TX 78660",78660,400000,30.492646,-97.564367,0.0,Pflugerville ISD,2015-10-27
"15709 Fagerquist RD, Del Valle TX 78617",78617,300000,30.140116,-97.593042,3880.0,Del Valle ISD,2015-11-02
"9958 Sendera, Belton TX 76513",76513,500000,31.046287,-97.585412,8300.0,Killeen ISD,2015-11-25
"903 Settlement CV, Cedar Park TX 78613",78613,200000,30.519621,-97.817574,5182.0,Leander ISD,2015-10-28
"1513 Cassiopeia WAY, Austin TX 78732",78732,600000,30.359335,-97.905314,13882.0,Leander ISD,2015-10-28
"11407 Toledo DR, Austin TX 78759",78759,400000,30.408208,-97.738884,7279.89,Austin ISD,2015-11-01
"13001 Turkey RUN, Austin TX 78727",78727,200000,30.422254,-97.690695,3556.0,Pflugerville ISD,2015-10-30
"16109 Ozarks PATH, Austin TX 78738",78738,500000,30.321235,-97.993079,8908.0,Lake Travis ISD,2015-10-29
"904 James ST, Austin TX 78704",78704,700000,30.254396,-97.757123,13177.0,Austin ISD,2015-11-02
"12716 Picket Rope LN, Austin TX 78727",78727,300000,30.415742,-97.684494,5866.31,Pflugerville ISD,2015-11-05
"2605 Marcus Abrams BLVD, Austin TX 78748",78748,200000,30.151776,-97.841819,4182.0,Austin ISD,2015-10-30
"300 Bowie ST # 802, Austin TX 78703",78703,300000,30.268783,-97.753917,5904.0,Austin ISD,2015-10-30
"5222 Woodrow AVE # B, Austin TX 78756",78756,500000,30.324084,-97.736114,5891.0,Austin ISD,2015-11-06
"207 Mccarthur DR, Leander TX 78641",78641,200000,30.552012,-97.838183,4405.0,Leander ISD,2015-11-03
"615 Theresa AVE # A, Austin TX 78703",78703,800000,30.278827,-97.766342,20950.0,Austin ISD,2015-11-04
"174 Quail TRL, Marble Falls TX 78654",78654,300000,30.626863,-98.332239,796.0,Marble Falls ISD,2015-11-10
"320 Kallus ST, Schulenburg TX 78956",78956,80000,29.673482,-96.903109,420.0,Schulenburg ISD,2015-11-03
"2401 Pruett ST, Austin TX 78703",78703,600000,30.281742,-97.772983,10428.0,Austin ISD,2015-11-05
"2708 Hearthsong LOOP, Round Rock TX 78665",78665,200000,30.552292,-97.627813,3511.0,Round Rock ISD,2015-11-06
"108 Lakemont DR, Hutto TX 78634",78634,200000,30.511894,-97.567582,2863.0,Hutto ISD,2015-11-06
"1004 Sue Ann Rose, Austin TX 78717",78717,400000,30.487903,-97.729248,0.0,Round Rock ISD,2015-11-09
"193 High Point RDG, Seguin TX 78155",78155,200000,29.452198,-97.830442,1676.0,Seguin ISD,2015-11-27
"50106 Iron Horse TRL, Georgetown TX 78626",78626,200000,30.639677,-97.637354,3223.65,Georgetown ISD,2015-11-12
"8001 Swindon LN, Austin TX 78745",78745,300000,30.196939,-97.822536,5139.0,Austin ISD,2015-11-07
"1703 Garner AVE, Austin TX 78704",78704,500000,30.253485,-97.770008,8686.0,Austin ISD,2015-11-09
"153 Marcheeta WAY, Leander TX 78641",78641,200000,30.624271,-97.8669,7531.0,Leander ISD,2015-11-06
"2619 Waizel WAY, Georgetown TX 78626",78626,300000,30.632136,-97.650302,4624.0,Georgetown ISD,2015-11-06
"8709 Samuel Bishop DR, Austin TX 78736",78736,400000,30.240644,-97.901299,9048.0,Austin ISD,2015-11-13
"10509 Superview DR, Austin TX 78736",78736,800000,30.25284,-97.925923,2328.0,Austin ISD,2015-11-07
"10201 Longhorn SKWY, Dripping Springs TX 78620",78620,200000,30.278786,-98.048038,2607.0,Lake Travis ISD,2015-11-09
"1216 Peppermint TRL, Pflugerville TX 78660",78660,200000,30.427569,-97.636078,4272.0,Pflugerville ISD,2015-11-06
"108 Swenson DR, Hutto TX 78634",78634,200000,30.539715,-97.550041,4888.0,Hutto ISD,2015-11-20
"1620 Bryant DR # 2503, Round Rock TX 78664",78664,200000,30.491515,-97.64986,4300.0,Round Rock ISD,2015-11-10
"1015 Talley LOOP, Buda TX 78610",78610,300000,30.099567,-97.858606,6386.0,Hays ISD,2015-11-11
"12205 Waterside TRL, Austin TX 78750",78750,200000,30.458722,-97.809812,4919.0,Round Rock ISD,2015-11-17
"2642 Luke DR, Other GA 30294",30294,20000,33.598622,-84.303809,405.0,Other,2015-11-12
"19433 Sea Island DR, Pflugerville TX 78660",78660,300000,30.469027,-97.57691,2.8,Pflugerville ISD,2015-11-11
"12924 Little Dipper PATH, Austin TX 78732",78732,500000,30.360384,-97.909234,11188.0,Leander ISD,2015-11-11
"1207 Neans DR, Austin TX 78758",78758,200000,30.37628,-97.699661,4106.0,Austin ISD,2015-11-14
"122 Trail Of The Flowers, Georgetown TX 78633",78633,200000,30.705393,-97.734438,4313.0,Georgetown ISD,2015-11-16
"1005 Peppermint TRL, Pflugerville TX 78660",78660,200000,30.427854,-97.638011,4866.0,Pflugerville ISD,2015-11-18
"5324 Ingersoll LN, Austin TX 78744",78744,300000,30.182076,-97.692684,5659.0,Del Valle ISD,2015-11-09
"1013 Hunters Creek DR, Cedar Park TX 78613",78613,300000,30.475726,-97.826911,5670.0,Leander ISD,2015-11-19
"215 W Moeller ST, Bertram TX 78605",78605,100000,30.745048,-98.053308,2613.0,Burnet ISD,2015-11-18
"7301 S Glenn ST, Austin TX 78744",78744,200000,30.197982,-97.698166,3980.0,Del Valle ISD,2015-11-16
"3201 McCurdy ST, Austin TX 78723",78723,700000,30.291419,-97.695694,0.0,Austin ISD,2015-11-16
"800 San Vicente DR, Leander TX 78641",78641,200000,30.583516,-97.865297,5014.0,Leander ISD,2015-11-16
"706 Holly CT, Pflugerville TX 78660",78660,200000,30.444149,-97.609491,5328.0,Pflugerville ISD,2015-11-16
"11541 Arbroath LN, Austin TX 78754",78754,200000,30.354278,-97.617768,4895.0,Manor ISD,2015-11-30
"3618 Turkey Path BND, Cedar Park TX 78613",78613,300000,30.515603,-97.767545,8442.0,Leander ISD,2015-11-17
"7685 Northcross DR # 429, Austin TX 78757",78757,200000,30.354219,-97.735694,2978.0,Austin ISD,2015-06-27
"312 Stewart DR, Hutto TX 78634",78634,200000,30.522245,-97.545202,3712.0,Hutto ISD,2015-06-27
"701 Harwood DR, San Marcos TX 78666",78666,200000,29.945081,-97.897795,5115.0,Hays ISD,2015-06-23
"1710 Cullen AVE, Austin TX 78757",78757,600000,30.343594,-97.729542,8080.0,Austin ISD,2015-06-25
"1503 Dragon DR, Round Rock TX 78681",78681,300000,30.503896,-97.698654,4957.0,Round Rock ISD,2015-06-30
"3015 Paseo de Charros, Leander TX 78641",78641,400000,30.553157,-97.790697,10737.0,Leander ISD,2015-06-30
"1107 Lott AVE, Austin TX 78721",78721,100000,30.270961,-97.681353,2888.0,Austin ISD,2015-06-29
"8602 Altus CV, Austin TX 78759",78759,700000,30.384562,-97.763032,13060.0,Austin ISD,2015-06-29
"1702 West End PL, Round Rock TX 78681",78681,400000,30.545263,-97.710451,9416.0,Round Rock ISD,2015-07-02
"15106 Honeycomb CT, Leander TX 78641",78641,400000,30.576175,-97.927432,9314.0,Leander ISD,2015-06-29
"11715 Blackhawk DR, Austin TX 78759",78759,300000,30.413697,-97.735095,4799.74,Austin ISD,2015-07-08
"101 Susana DR, Georgetown TX 78628",78628,200000,30.616191,-97.691613,3503.0,Georgetown ISD,2015-07-01
"2424 Muzzie LN, Leander TX 78641",78641,300000,30.560328,-97.803396,7000.0,Leander ISD,2015-07-01
"7807 Crazy Horse DR, Austin TX 78737",78737,200000,30.221189,-97.897958,3343.0,Austin ISD,2015-07-02
"14503 Joy Lee LN, Manor TX 78653",78653,100000,30.368316,-97.517608,2577.0,Manor ISD,2015-07-23
"411 Bubbling Brook DR, Hutto TX 78634",78634,200000,30.530174,-97.538768,4485.0,Hutto ISD,2015-07-09
"9612 Newberry DR, Austin TX 78729",78729,200000,30.456288,-97.787001,3938.0,Round Rock ISD,2015-08-14
"1806 Inverness BLVD, Austin TX 78745",78745,400000,30.217447,-97.794657,5812.0,Austin ISD,2015-07-03
"1705 Brentwood ST, Austin TX 78757",78757,600000,30.338708,-97.732075,8818.0,Austin ISD,2015-07-01
"7300 Glenhill RD, Austin TX 78752",78752,300000,30.326046,-97.684918,4174.0,Austin ISD,2015-07-02
"5410 Mccandless ST, Austin TX 78756",78756,700000,30.323919,-97.730396,6856.0,Austin ISD,2015-07-03
"311 Gulfstream DR, Georgetown TX 78626",78626,200000,30.634813,-97.636524,5275.0,Georgetown ISD,2015-11-01
"4296 Ridgebend DR, Round Rock TX 78665",78665,400000,30.575214,-97.65943,9742.0,Round Rock ISD,2015-07-06
"8316 Hathaway DR, Austin TX 78757",78757,300000,30.363649,-97.726927,3727.0,Austin ISD,2015-07-06
"8700 Birmingham DR, Austin TX 78748",78748,200000,30.18076,-97.807252,3864.0,Austin ISD,2015-07-10
"8302 Hanbridge LN, Austin TX 78736",78736,200000,30.238608,-97.894489,4056.0,Austin ISD,2015-07-17
"10505 Spicewood PKWY, Austin TX 78750",78750,500000,30.430667,-97.806595,7781.0,Round Rock ISD,2015-07-09
"105 Carrack DR, Round Rock TX 78681",78681,500000,30.492833,-97.723658,0.0,Round Rock ISD,2015-07-09
"11709 Switchgrass CV, Austin TX 78750",78750,500000,30.436189,-97.782179,9548.0,Round Rock ISD,2015-07-10
"7200 Razors Edge, Austin TX 78744",78744,200000,30.194727,-97.737456,6488.0,Del Valle ISD,2015-07-12
"117 Steele, Kyle TX 78640",78640,200000,30.015591,-97.8774,4739.0,Hays ISD,2015-07-11
"408 Kodiak TRL, Cedar Park TX 78613",78613,1000000,30.518715,-97.779143,18867.0,Leander ISD,2015-07-08
"1213 Lake Shore DR, Spicewood TX 78669",78669,300000,30.442148,-98.076851,5099.0,Lake Travis ISD,2015-07-13
"508 BOONE VALLEY DR, Round Rock TX 78664",78664,200000,30.488612,-97.605701,5520.0,Pflugerville ISD,2015-07-10
"5507 Oakwood CV # B, Austin TX 78731",78731,400000,30.338601,-97.766833,7457.0,Austin ISD,2015-07-14
"12530 Enchanted Forest DR, Austin TX 78727",78727,400000,30.427607,-97.729245,7416.0,Austin ISD,2015-07-23
"725 Woodrow CIR, New Braunfels TX 78130",78130,200000,29.701796,-98.145349,3964.0,New Braunfels ISD,2015-07-16
"200 W Barzona BND, Cedar Park TX 78613",78613,400000,30.521565,-97.760407,9616.0,Round Rock ISD,2015-07-16
"138 Sailors RUN, Lakeway TX 78734",78734,400000,30.365825,-97.978061,5922.0,Lake Travis ISD,2015-07-17
"9953 Aly May DR, Austin TX 78748",78748,300000,30.17054,-97.818013,5458.0,Austin ISD,2015-07-16
"3753 Gentle Winds LN, Round Rock TX 78681",78681,300000,30.555737,-97.743862,6088.0,Round Rock ISD,2015-07-16
"136 Portsmouth DR, Georgetown TX 78633",78633,200000,30.731335,-97.714468,3709.0,Jarrell ISD,2015-07-13
"115 N Oak Hollow RD, Georgetown TX 78628",78628,300000,30.64246,-97.692654,4648.0,Georgetown ISD,2015-07-15
"4813 Senora Creek CT, Austin TX 78735",78735,600000,30.246098,-97.837579,9431.0,Austin ISD,2015-07-16
"2806 Zambia DR, Cedar Park TX 78613",78613,500000,30.474253,-97.85592,9648.25,Leander ISD,2015-07-18
"9104 Rockcrest CIR # B, Austin TX 78759",78759,300000,30.386357,-97.74833,10380.0,Austin ISD,2015-07-17
"7501 Magenta LN, Austin TX 78739",78739,500000,30.190397,-97.909754,10801.0,Austin ISD,2015-07-21
"127 River RD, Liberty Hill TX 78642",78642,100000,30.72099,-97.90166,1767.0,Liberty Hill ISD,2015-07-17
"317 Greener DR, Leander TX 78641",78641,200000,30.573939,-97.876755,3388.0,Leander ISD,2015-07-24
"1603 Thibodeaux DR, Round Rock TX 78664",78664,200000,30.481361,-97.653927,3503.0,Round Rock ISD,2015-07-16
"1731 Brazos Bend AVE, Smithville TX 78957",78957,400000,30.001049,-97.135058,6718.0,Smithville ISD,2015-07-17
"103 Columbine CT, Georgetown TX 78633",78633,200000,30.699326,-97.735844,4335.0,Georgetown ISD,2015-07-16
"1006 Woodview DR, Leander TX 78641",78641,200000,30.568201,-97.836168,4803.0,Leander ISD,2015-07-17
"4825 Amesley CV, Austin TX 78727",78727,300000,30.416437,-97.732942,6563.0,Austin ISD,2015-07-16
"688 Apricot DR, Kyle TX 78640",78640,200000,29.962614,-97.840279,3739.0,Hays ISD,2015-07-20
"3451 Fm 619, Taylor TX 76574",76574,200000,30.610303,-97.382136,2916.0,Thrall ISD,2015-07-20
"1012 Bluebird DR, Manchaca TX 78652",78652,200000,30.138523,-97.890615,4663.0,Hays ISD,2015-07-20
"2610 Sunrise Valley LN, Georgetown TX 78626",78626,200000,30.615716,-97.672675,3480.0,Georgetown ISD,2015-07-24
"221 Comanche LN, Point Venture TX 78645",78645,200000,30.386397,-97.989375,2749.0,Lago Vista ISD,2015-07-22
"400 River Down RD, Georgetown TX 78628",78628,400000,30.614942,-97.706486,7776.0,Georgetown ISD,2015-08-22
"8507 Honeysuckle TRL, Austin TX 78759",78759,500000,30.375803,-97.744624,12000.0,Austin ISD,2015-07-21
"633 Arrowood PL, Round Rock TX 78665",78665,200000,30.511081,-97.630752,3958.0,Round Rock ISD,2015-08-14
"8200 Neely DR # 248, Austin TX 78759",78759,400000,30.37718,-97.758906,5669.0,Austin ISD,2015-07-31
"2008 Riverview ST # B, Austin TX 78702",78702,400000,30.251143,-97.725005,8213.0,Austin ISD,2015-07-14
"12225 Abbey Glen LN, Austin TX 78753",78753,100000,30.388596,-97.658266,3067.93,Pflugerville ISD,2015-07-29
"6910 Drexel DR, Austin TX 78723",78723,300000,30.318462,-97.675078,4466.0,Austin ISD,2015-07-24
"707 Hunter DR, Rockdale TX 76567",76567,80000,30.654901,-97.019954,692.0,Rockdale ISD,2015-07-23
"7009 William Wallace WAY, Austin TX 78754",78754,200000,30.350458,-97.608302,4109.0,Manor ISD,2015-07-23
"15108 Plowshare DR, Pflugerville TX 78660",78660,200000,30.432532,-97.638198,4576.0,Pflugerville ISD,2015-07-24
"4124 Bison BND, Cedar Park TX 78613",78613,600000,30.515173,-97.758266,0.0,Round Rock ISD,2015-07-22
"2303 Mayfield WAY, Cedar Park TX 78613",78613,300000,30.528968,-97.864968,6266.0,Leander ISD,2015-07-23
"10717 Portico DR, Austin TX 78748",78748,300000,30.179637,-97.833441,7277.0,Austin ISD,2015-07-23
"2415 Yorkshire LN, Cedar Park TX 78613",78613,300000,30.52021,-97.867451,6217.0,Leander ISD,2015-07-24
"3508 Alexandria DR, Austin TX 78749",78749,200000,30.201429,-97.839357,3819.0,Austin ISD,2015-07-29
"1236 Belvin ST, San Marcos TX 78666",78666,400000,29.875577,-97.95571,4891.0,San Marcos ISD,2015-07-28
"1241 Enchanted Oak DR, Driftwood TX 78619",78619,700000,30.145335,-98.001713,3382.0,Dripping Springs ISD,2015-07-31
"4028 Cottonwood DR, Cottonwood Shores TX 78657",78657,100000,30.550014,-98.324424,2147.0,Marble Falls ISD,2015-08-05
"708 River CRST, Leander TX 78641",78641,200000,30.561174,-97.835099,3958.0,Leander ISD,2015-07-31
"9226 Jollyville RD # 143, Austin TX 78759",78759,200000,30.384179,-97.745742,3570.0,Austin ISD,2015-08-28
,78735,1000000,30.298015,-97.867441,25667.0,Austin ISD,2015-07-31
"3304 Eldorado TRL, Austin TX 78748",78748,400000,30.163584,-97.859444,5549.0,Austin ISD,2015-08-06
"4000 Sapphire LOOP, Round Rock TX 78681",78681,300000,30.560742,-97.751778,7027.0,Leander ISD,2015-07-31
"9002 Queenswood DR, Austin TX 78748",78748,400000,30.18638,-97.827673,5729.0,Austin ISD,2015-07-31
"104 Jim Bowie, Paige TX 78659",78659,200000,30.168369,-97.218015,286.0,Bastrop ISD,2015-08-03
"2110 Grove DR, Round Rock TX 78681",78681,200000,30.528149,-97.709586,4497.0,Round Rock ISD,2015-08-13
"18725 Dry Lake LN, Pflugerville TX 78660",78660,200000,30.456041,-97.572016,5119.0,Pflugerville ISD,2015-07-31
"12101 Terraza CIR, Austin TX 78726",78726,300000,30.428515,-97.845624,8500.0,Leander ISD,2015-08-01
"127 Lakeway DR, Lakeway TX 78734",78734,800000,30.372206,-97.990183,7953.0,Lake Travis ISD,2015-08-01
"12912 Hunters Chase DR, Austin TX 78729",78729,200000,30.450743,-97.765768,4725.0,Round Rock ISD,2015-08-06
"2695 Fredwoods DR, Kingsland TX 78639",78639,30000,30.675286,-98.441867,719.0,Llano ISD,2015-08-04
"1500 Wooten DR, Austin TX 78757",78757,800000,30.355564,-97.720034,8430.0,Austin ISD,2015-08-14
"101 Landons WAY, Georgetown TX 78633",78633,400000,30.708098,-97.787251,6262.0,Georgetown ISD,2015-08-04
"115 Jefferson CV, Elgin TX 78621",78621,200000,30.358125,-97.405059,3676.0,Elgin ISD,2015-08-04
"1009 N Ash CV, Hutto TX 78634",78634,200000,30.548553,-97.562812,6481.0,Hutto ISD,2015-08-06
"11601 Mcdows Hole LN, Austin TX 78717",78717,300000,30.496566,-97.794276,6800.0,Leander ISD,2015-05-22
"7701 Black Mountain DR, Austin TX 78736",78736,300000,30.237759,-97.900913,6721.0,Austin ISD,2015-05-22
"2808 Penelope CT, Round Rock TX 78665",78665,200000,30.556514,-97.60502,7150.0,Round Rock ISD,2015-05-20
"2525 Hilltop Divide LN, Leander TX 78641",78641,400000,30.53339,-97.875147,10939.0,Leander ISD,2015-07-14
"401 Darwins WAY, Austin TX 78734",78734,400000,30.342709,-97.962775,9896.0,Lake Travis ISD,2015-05-21
"16229 Cantania CV, Pflugerville TX 78660",78660,300000,30.445792,-97.561247,8376.0,Pflugerville ISD,2015-05-21
"1135 Orchard Park CIR, Pflugerville TX 78660",78660,100000,30.453596,-97.649468,1921.0,Pflugerville ISD,2015-05-20
"1601 E Cesar Chavez ST # 302, Austin TX 78702",78702,300000,30.258241,-97.728566,5706.17,Austin ISD,2015-05-21
"1008 Banyon ST, Austin TX 78757",78757,500000,30.343801,-97.71848,10589.0,Austin ISD,2015-05-21
"3013 Columbus LOOP, Round Rock TX 78665",78665,400000,30.560634,-97.608808,0.0,Round Rock ISD,2015-05-26
"4608 Valleybrook CIR, Other TX 77845",77845,300000,30.564535,-96.245638,0.0,Other,2015-05-26
"3505 Marcae CT, Austin TX 78704",78704,600000,30.233249,-97.770237,10374.0,Austin ISD,2015-05-29
"18513 McGloin TRL, Austin TX 78738",78738,500000,30.326023,-98.03437,11401.09,Lake Travis ISD,2015-05-26
"1126 Happy Haven RD, McQueeney TX 78123",78123,500000,29.618713,-98.03963,6334.0,Seguin ISD,2015-05-29
"6500 E Hill DR, Austin TX 78731",78731,300000,30.345939,-97.753666,4752.0,Austin ISD,2015-05-27
"2506 Cockburn DR, Austin TX 78745",78745,300000,30.211064,-97.810321,4010.0,Austin ISD,2015-05-30
"406 Grisham DR, Hutto TX 78634",78634,200000,30.539116,-97.546399,4429.0,Hutto ISD,2015-05-29
"4337 Rock Hill Rd, Round Rock TX 78681",78681,300000,30.551819,-97.760744,7096.0,Leander ISD,2015-05-29
"625 Brooks Mill, Bertram TX 78605",78605,100000,30.747837,-98.060635,1257.0,Burnet ISD,2015-05-28
"2517 Peterson DR, Cedar Park TX 78613",78613,300000,30.527394,-97.787112,5957.0,Leander ISD,2015-05-30
"13 Brookmeadow DR, Wimberley TX 78676",78676,400000,30.030976,-98.104316,5561.0,Wimberley ISD,2015-05-28
"1130 Clark Brothers DR, Buda TX 78610",78610,300000,30.098757,-97.86126,5866.0,Hays ISD,2015-05-28
"214 Hendelson LN, Hutto TX 78634",78634,200000,30.564126,-97.540168,5431.0,Hutto ISD,2015-05-28
"9304 Spring Hollow DR, Austin TX 78750",78750,600000,30.44182,-97.796056,7763.0,Round Rock ISD,2015-05-27
"6105 Empresa DR, Austin TX 78738",78738,500000,30.324798,-98.033856,14000.0,Lake Travis ISD,2015-05-27
"3864 Ashbury LN, Round Rock TX 78681",78681,300000,30.567302,-97.750731,9700.0,Georgetown ISD,2015-05-27
"2401 Smith Branch BLVD, Georgetown TX 78626",78626,100000,30.621935,-97.661199,2347.0,Georgetown ISD,2015-06-01
"5703 Westminster DR, Austin TX 78723",78723,400000,30.310028,-97.690508,4576.0,Austin ISD,2015-05-28
"821 County Road 148, Georgetown TX 78626",78626,400000,30.709414,-97.597625,12482.0,Georgetown ISD,2015-05-27
"7714 Easy Wind DR, Austin TX 78757",78757,300000,30.344681,-97.717695,7985.0,Austin ISD,2015-05-27
"303 Ranger DR, Buda TX 78610",78610,200000,30.11448,-97.857424,3336.0,Hays ISD,2015-05-31
"1015 E Yager LN # 70, Austin TX 78753",78753,100000,30.391137,-97.660949,1827.0,Pflugerville ISD,2015-05-31
"11801 Hobbiton TRL, Austin TX 78739",78739,400000,30.163735,-97.869784,7755.0,Austin ISD,2015-06-15
"11916 DAVE SILK DR, Austin TX 78748",78748,300000,30.147672,-97.840018,5415.0,Austin ISD,2015-05-30
"103 RACEBROOK CT, Lakeway TX 78734",78734,400000,30.364645,-97.970996,9895.0,Lake Travis ISD,2015-06-01
"210 Old Peak RD, Georgetown TX 78626",78626,200000,30.606659,-97.652313,3173.0,Georgetown ISD,2015-05-30
"15200 N Flamingo DR, Austin TX 78734",78734,200000,30.362919,-97.948459,3966.0,Lake Travis ISD,2015-07-29
"516 Paladin, Round Rock TX 78664",78664,300000,30.492505,-97.602705,5668.0,Pflugerville ISD,2015-05-28
"360 Nueces ST # 2303, Austin TX 78701",78701,400000,30.267656,-97.749615,7240.0,Austin ISD,2015-05-29
"1021 Private Road 3143, Lexington TX 78947",78947,400000,30.432281,-97.147518,2581.0,Lexington ISD,2015-05-29
"201 Buena Vista DR, Georgetown TX 78633",78633,500000,30.736474,-97.707072,8036.0,Jarrell ISD,2015-06-04
"10321 Timbercrest LN, Austin TX 78750",78750,200000,30.452628,-97.801654,4417.0,Round Rock ISD,2015-06-06
"11408 Dona Villa DR, Austin TX 78726",78726,400000,30.429051,-97.836622,9173.0,Leander ISD,2015-06-02
"8810 Whiteworth LOOP, Austin TX 78749",78749,300000,30.200215,-97.857706,6422.0,Austin ISD,2015-06-06
"900 & 904 Mcdonald DR, Marble Falls TX 78654",78654,200000,30.559221,-98.285836,2875.0,Marble Falls ISD,2015-06-02
"13224 Country Trails LN, Austin TX 78732",78732,700000,30.37189,-97.907439,16573.0,Leander ISD,2015-06-02
"17204 FLINTROCK RD, Austin TX 78738",78738,1000000,30.333405,-98.005018,16582.0,Lake Travis ISD,2015-06-04
"14616 Ballycastle TRL, Austin TX 78717",78717,300000,30.495027,-97.780533,6668.0,Leander ISD,2015-06-03
"18413 Bassano AVE, Pflugerville TX 78660",78660,400000,30.445099,-97.559701,11266.0,Pflugerville ISD,2015-06-04
,78681,300000,30.507322,-97.728586,6446.0,Round Rock ISD,2015-06-05
"3211 Saint Genevieve DR, Leander TX 78641",78641,200000,30.553122,-97.83175,5008.0,Leander ISD,2015-06-05
"3110 Red River ST # 114, Austin TX 78705",78705,200000,30.291,-97.727607,4400.0,Austin ISD,2015-06-04
"14017 Turkey Hollow TRL, Austin TX 78717",78717,300000,30.490293,-97.79479,6330.0,Leander ISD,2015-06-05
"3237 Elizabeth Anne LN, Round Rock TX 78664",78664,200000,30.491174,-97.62195,3143.0,Round Rock ISD,2015-06-05
"9517 Veletta PL, Austin TX 78735",78735,2000000,30.285638,-97.886255,39261.0,Austin ISD,2015-06-05
"1278 Clark Brothers DR, Buda TX 78610",78610,300000,30.098712,-97.863748,5778.0,Hays ISD,2015-06-10
"1100 Toyath ST, Austin TX 78703",78703,500000,30.281879,-97.763304,8210.0,Austin ISD,2015-06-05
"3309 Paintrock DR, Killeen TX 76549",76549,90000,31.096464,-97.769214,2240.0,Killeen ISD,2015-06-05
"3305 Nunez CT, Round Rock TX 78665",78665,400000,30.561147,-97.68193,0.0,Round Rock ISD,2015-06-05
"100 Stubblefield DR, Elgin TX 78621",78621,200000,30.357195,-97.383789,3133.0,Elgin ISD,2015-06-05
"2102 E 17th ST, Austin TX 78702",78702,400000,30.278307,-97.718362,6531.0,Austin ISD,2015-06-10
"6200 Hylawn DR, Austin TX 78723",78723,300000,30.306852,-97.672797,4526.0,Austin ISD,2015-06-05
"3211 John Campbells TRL, Austin TX 78735",78735,300000,30.235044,-97.809143,4032.0,Austin ISD,2015-06-06
"804 Newman DR, Austin TX 78703",78703,500000,30.284636,-97.775562,9399.0,Austin ISD,2015-06-08
"311 Dove Hollow TRL, Georgetown TX 78633",78633,200000,30.726328,-97.726442,4172.0,Georgetown ISD,2015-07-25
"144 Oak Plaza DR, Georgetown TX 78628",78628,700000,30.63148,-97.807694,12168.0,Liberty Hill ISD,2015-06-13
"21909 Plockton DR, Spicewood TX 78669",78669,300000,30.397855,-98.048806,450.0,Lake Travis ISD,2015-06-08
"206 Broken Arrow DR, Cedar Park TX 78613",78613,500000,30.525654,-97.76485,10740.0,Round Rock ISD,2015-06-08
"6202 Adel CV, Austin TX 78749",78749,300000,30.225879,-97.838114,5520.0,Austin ISD,2015-06-09
"3280 Hilliard RD, San Marcos TX 78666",78666,80000,29.956242,-97.969353,745.0,Hays ISD,2015-06-04
"8302 Arena PATH, Lago Vista TX 78645",78645,200000,30.482458,-97.970766,2395.0,Lago Vista ISD,2015-06-11
"169 Northern Flicker ST, Kyle TX 78640",78640,200000,30.044169,-97.958618,6600.0,Hays ISD,2015-06-11
"11313 Prairie Dog TRL, Austin TX 78750",78750,200000,30.455797,-97.817484,4384.0,Round Rock ISD,2015-06-10
"2509 Bear Springs TRL, Austin TX 78748",78748,400000,30.146655,-97.853074,9584.0,Austin ISD,2015-06-11
"2301 S 5th ST # 8, Austin TX 78704",78704,700000,30.244792,-97.764007,11950.0,Austin ISD,2015-06-26
"350 Zapalac RD, Smithville TX 78957",78957,300000,29.957708,-97.153701,2092.0,Smithville ISD,2015-06-22
"6300 Taffinder, Killeen TX 76549",76549,200000,31.073308,-97.790137,0.0,Killeen ISD,2015-06-21
"319 Ash ST, Lockhart TX 78644",78644,200000,29.889047,-97.675984,2581.0,Lockhart ISD,2015-06-19
"5303 Westminster DR, Austin TX 78723",78723,300000,30.300697,-97.686109,5092.0,Austin ISD,2015-06-22
"37 Crazy Cross RD, Wimberley TX 78676",78676,200000,30.036854,-98.140244,3291.0,Wimberley ISD,2015-06-19
"1797 Amberwood LOOP, Kyle TX 78640",78640,200000,30.031796,-97.843393,4030.0,Hays ISD,2015-06-19
"1320 Robert Browning ST # 305, Austin TX 78723",78723,300000,30.301601,-97.708464,5712.0,Austin ISD,2015-06-22
"7211 Lakewood DR # 104, Austin TX 78750",78750,300000,30.372135,-97.786848,3717.0,Austin ISD,2015-06-26
"3312 Blue Ridge DR, Round Rock TX 78681",78681,200000,30.562669,-97.739217,5041.0,Round Rock ISD,2015-06-24
"4808 Sylvandale DR, Austin TX 78745",78745,300000,30.221392,-97.789217,4892.0,Austin ISD,2015-06-25
"101 West Bank # 36, Horseshoe Bay TX 78657",78657,300000,30.55235,-98.359831,5205.0,Llano ISD,2015-06-26
"10808 Rock Island DR, Austin TX 78717",78717,300000,30.482786,-97.791303,1000.0,Round Rock ISD,2015-06-24
"16766 N Fm 487, Thorndale TX 76577",76577,200000,30.75965,-97.215426,433.0,Rockdale ISD,2015-07-24
"3213 Sauls DR, Austin TX 78728",78728,200000,30.456705,-97.683781,4453.0,Round Rock ISD,2015-06-26
"2116 Old Sterling RD, Cedar Park TX 78613",78613,300000,30.524935,-97.793771,6747.0,Leander ISD,2015-04-24
"401 E Fawnridge DR, Austin TX 78753",78753,200000,30.357287,-97.693264,2776.0,Austin ISD,2015-04-19
"7008 Bending Oak RD, Austin TX 78749",78749,400000,30.230521,-97.868986,6590.0,Austin ISD,2015-04-17
"141 Jack Rabbit LN, Buda TX 78610",78610,200000,30.044493,-97.813681,3827.0,Hays ISD,2015-04-16
"1103 High Lonesome, Leander TX 78641",78641,500000,30.532386,-97.888786,14486.69,Leander ISD,2015-04-27
"3505 Bridle PATH, Austin TX 78703",78703,900000,30.295936,-97.779486,16098.0,Austin ISD,2015-04-17
"9703 Anderson Village DR, Austin TX 78729",78729,200000,30.462506,-97.783745,3821.0,Round Rock ISD,2015-04-17
"347 Sunny Slope RD, Liberty Hill TX 78642",78642,400000,30.681928,-97.863224,8443.0,Liberty Hill ISD,2015-04-17
"449 Sandstone TRL, Buda TX 78610",78610,200000,30.060726,-97.829535,5867.0,Hays ISD,2015-04-17
"3504 Plover Run TRL, Pflugerville TX 78660",78660,400000,30.478099,-97.558338,13181.0,Pflugerville ISD,2015-04-16
"9009 Ipswich Bay DR, Austin TX 78747",78747,200000,30.150488,-97.749353,3784.0,Austin ISD,2015-04-17
"1807 Hidden Springs PATH, Round Rock TX 78665",78665,300000,30.568711,-97.661861,7214.0,Round Rock ISD,2015-04-17
"2305 Macaw DR, Cedar Park TX 78613",78613,300000,30.464779,-97.843635,6162.0,Leander ISD,2015-04-17
"13459 Athens TRL, Austin TX 78729",78729,300000,30.457033,-97.754524,4585.0,Round Rock ISD,2015-04-17
"1713 E Mesa Park CV, Round Rock TX 78664",78664,200000,30.521324,-97.658981,3320.81,Round Rock ISD,2015-04-17
"123 Savanna Terrace DR, Liberty Hill TX 78642",78642,100000,30.742697,-97.878799,1218.0,Liberty Hill ISD,2015-06-11
"520 Granite BLVD, Marble Falls TX 78654",78654,200000,30.626535,-98.338863,2264.0,Marble Falls ISD,2015-04-15
"12320 Montclair BND, Austin TX 78732",78732,500000,30.343708,-97.909158,11734.0,Leander ISD,2015-04-22
"8901 Briardale DR, Austin TX 78758",78758,200000,30.364584,-97.714389,3303.0,Austin ISD,2015-04-23
"11604 Shoreview Overlook, Austin TX 78732",78732,800000,30.344859,-97.89267,17714.0,Leander ISD,2015-04-16
"555 Eagle Brook LN, Buda TX 78610",78610,300000,30.043677,-97.805334,8005.0,Hays ISD,2015-04-16
"401 Torrington DR, Austin TX 78737",78737,400000,30.19547,-97.990085,9291.0,Dripping Springs ISD,2015-04-24
"14815 Avery Ranch BLVD # 403, Austin TX 78717",78717,200000,30.49623,-97.777118,4830.0,Leander ISD,2015-04-27
"851 Michelle DR, Other TX 76522",76522,40000,31.13948,-97.903856,1741.71,Other,2015-04-20
"12323 Cahone TRL, Austin TX 78729",78729,300000,30.441044,-97.767135,4698.14,Round Rock ISD,2015-04-20
"105 Liatris LN, Georgetown TX 78633",78633,400000,30.699454,-97.729603,6360.0,Georgetown ISD,2015-04-20
"12517 Briarcreek LOOP, Manor TX 78653",78653,100000,30.323309,-97.532225,2006.0,Manor ISD,2015-04-23
"530 Sendero Verde ST, Manchaca TX 78652",78652,300000,30.124565,-97.829468,2977.0,Austin ISD,2015-04-23
"13525 Green Lodge CT, Manor TX 78653",78653,200000,30.362123,-97.542414,5771.0,Manor ISD,2015-04-30
"5820 Berkman DR # 105, Austin TX 78723",78723,200000,30.312915,-97.693593,2900.0,Austin ISD,2015-04-23
"7209 Grover AVE, Austin TX 78757",78757,300000,30.342183,-97.721555,7432.0,Austin ISD,2015-04-27
"4911 Sylvandale DR, Austin TX 78745",78745,300000,30.220651,-97.790466,5692.0,Austin ISD,2015-04-23
"13400 Briarwick DR # 2102, Austin TX 78729",78729,300000,30.465921,-97.767057,5700.0,Round Rock ISD,2015-04-23
"1902 E 14th ST # A, Austin TX 78702",78702,600000,30.276154,-97.719883,4641.0,Austin ISD,2015-04-22
"13213 Coleto Creek TRL, Austin TX 78732",78732,600000,30.368974,-97.907982,16415.0,Leander ISD,2015-04-24
"213 Lidell ST, Hutto TX 78634",78634,200000,30.554505,-97.55075,4174.0,Hutto ISD,2015-04-23
"1020 Teravista XING, Georgetown TX 78626",78626,300000,30.590246,-97.660458,9893.0,Georgetown ISD,2015-04-24
"13701 Trautwein RD, Austin TX 78737",78737,400000,30.211752,-98.019542,4512.0,Dripping Springs ISD,2015-04-24
"18401 Dry Brook LOOP, Pflugerville TX 78660",78660,200000,30.452459,-97.574839,5481.0,Pflugerville ISD,2015-04-24
"101 Rinehardt ST, Hutto TX 78634",78634,100000,30.562364,-97.544587,3604.0,Hutto ISD,2015-04-24
"100 Huntsville CV, Georgetown TX 78633",78633,200000,30.72198,-97.749159,3870.0,Georgetown ISD,2015-04-27
"2505 CR 326, Bertram TX 78605",78605,700000,30.704193,-98.069024,1231.0,Burnet ISD,2015-04-27
"3808 River Place BLVD, Austin TX 78730",78730,900000,30.362634,-97.855611,16108.0,Leander ISD,2015-04-26
"10502 WALPOLE LN, Austin TX 78739",78739,400000,30.193284,-97.888783,7271.0,Austin ISD,2015-04-29
"7050 Thistle Hill WAY, Austin TX 78754",78754,200000,30.349087,-97.609847,4587.0,Manor ISD,2015-04-29
"131 Crizer CT, Buda TX 78610",78610,200000,30.099683,-97.859749,4541.0,Hays ISD,2015-04-30
"127 Marion ST, Meadowlakes TX 78654",78654,200000,30.567902,-98.296115,3883.0,Marble Falls ISD,2015-04-27
"320 Tula TRL, Leander TX 78641",78641,200000,30.562479,-97.851178,6888.0,Leander ISD,2015-04-28
"7500 Shadowridge RUN # 55, Austin TX 78749",78749,300000,30.226029,-97.874208,3809.0,Austin ISD,2015-04-30
"1907 E 9th ST, Austin TX 78702",78702,400000,30.2639,-97.72086,3957.0,Austin ISD,2015-05-01
"125 Brisa Bend WAY, Round Rock TX 78681",78681,400000,30.550393,-97.73046,9353.0,Round Rock ISD,2015-05-04
"9202 Grant Forest DR, Austin TX 78744",78744,200000,30.160428,-97.78258,4404.0,Austin ISD,2015-05-01
"1910 Spring Hollow PATH, Round Rock TX 78681",78681,300000,30.514712,-97.705209,5045.0,Round Rock ISD,2015-05-01
"1057 Flaman RD, Canyon Lake TX 78133",78133,300000,29.898605,-98.191561,4603.0,Comal ISD,2015-05-01
"9305 Brents Elm DR, Austin TX 78744",78744,200000,30.159867,-97.779932,3443.0,Austin ISD,2015-05-01
"11112 Hattery LN, Austin TX 78717",78717,300000,30.497224,-97.787972,6563.0,Leander ISD,2015-04-30
"401 Cowal DR N, Spicewood TX 78669",78669,300000,30.41361,-98.040716,450.0,Lake Travis ISD,2015-05-01
"102 Cedar ST, Johnson City TX 78636",78636,100000,30.272348,-98.402759,1473.0,Johnson City ISD,2015-05-04
"6219 Yorkshire DR, Spring Branch TX 78070",78070,300000,29.834869,-98.366989,4505.0,Comal ISD,2015-05-04
"8223 Racine TRL, Austin TX 78717",78717,200000,30.490334,-97.740339,4889.0,Round Rock ISD,2015-05-01
"13113 Craven LN, Manor TX 78653",78653,300000,30.356363,-97.552154,7790.0,Manor ISD,2015-05-08
"2807 Mecca RD, Austin TX 78733",78733,300000,30.350227,-97.859247,5039.0,Eanes ISD,2015-05-02
"4611 Pinehurst DR S, Austin TX 78747",78747,300000,30.135775,-97.785462,3553.0,Austin ISD,2015-05-02
"7320 Jaborandi DR, Austin TX 78739",78739,500000,30.186197,-97.919726,9424.0,Austin ISD,2015-05-27
"9280 Scenic Bluff DR, Austin TX 78733",78733,600000,30.298457,-97.882154,11370.0,Eanes ISD,2015-06-26
"2211 Falkirk DR, Round Rock TX 78681",78681,400000,30.536766,-97.707459,6581.8,Round Rock ISD,2015-05-22
"6211 John Chisum LN, Austin TX 78749",78749,400000,30.222605,-97.870012,6287.0,Austin ISD,2015-05-12
"105 Hummingbird CV, Georgetown TX 78633",78633,200000,30.727994,-97.716733,4202.0,Jarrell ISD,2015-05-08
"210 Scurry PASS, Georgetown TX 78633",78633,200000,30.721518,-97.716276,4131.0,Jarrell ISD,2015-05-15
"4300 Scales ST, Austin TX 78723",78723,700000,30.295076,-97.703958,13809.0,Austin ISD,2015-06-21
"1908 S West DR, Leander TX 78641",78641,200000,30.55305,-97.846588,3953.0,Leander ISD,2015-05-13
"3650 RIVER RD, Wimberley TX 78676",78676,600000,29.974369,-98.138231,7900.0,Wimberley ISD,2015-05-15
"328 Farmer LN, Jarrell TX 76537",76537,200000,30.827724,-97.605407,0.0,Jarrell ISD,2015-05-14
"12405 Gun Metal DR, Austin TX 78739",78739,400000,30.150904,-97.857899,8175.0,Austin ISD,2015-05-16
"200 Summer Alcove WAY, Austin TX 78732",78732,700000,30.344071,-97.912247,18000.0,Leander ISD,2015-05-14
"321 Spring Branch LOOP, Kyle TX 78640",78640,200000,30.011058,-97.875396,4000.0,Hays ISD,2015-05-15
"17703 Marfa Lights TRL, Round Rock TX 78664",78664,200000,30.475081,-97.645729,4396.0,Pflugerville ISD,2015-05-15
"12302 Knoll Ridge DR, Austin TX 78758",78758,300000,30.406293,-97.684845,6123.0,Pflugerville ISD,2015-05-14
"4125 Lake Edge WAY, Pflugerville TX 78660",78660,200000,30.448046,-97.568703,6350.0,Pflugerville ISD,2015-05-15
"211 Island Lodges DR, Buchanan Dam TX 78609",78609,200000,30.740512,-98.432272,2663.68,Burnet ISD,2015-05-15
"1203 Cedar AVE, Austin TX 78702",78702,500000,30.275214,-97.71285,7380.0,Austin ISD,2015-05-16
"700 San Gabriel DR, Liberty Hill TX 78642",78642,400000,30.667811,-97.985387,5332.0,Liberty Hill ISD,2015-05-21
"8540 Adirondack TRL # 24, Austin TX 78759",78759,600000,30.383548,-97.763947,11899.0,Austin ISD,2015-05-26
"505 Green Valley DR, Bastrop TX 78602",78602,200000,30.18333,-97.295172,391.0,Bastrop ISD,2015-05-28
"306 Old Settlers DR, San Marcos TX 78666",78666,200000,29.945689,-97.894821,4688.0,Hays ISD,2015-05-18
"313 Wildwood DR, Georgetown TX 78633",78633,200000,30.684044,-97.726042,4290.0,Georgetown ISD,2015-05-19
"18212 Wind Valley WAY, Pflugerville TX 78660",78660,400000,30.455332,-97.579808,0.0,Pflugerville ISD,2015-05-27
"2212 N Cannes DR, Cedar Park TX 78613",78613,300000,30.480371,-97.81432,751.0,Round Rock ISD,2015-06-26
"5864 Sugar Hill DR, Other TX 77057",77057,300000,29.756953,-95.484674,5006.0,Other,2015-06-26
"119 Litton LN, Cedar Creek TX 78612",78612,400000,30.096044,-97.485979,5656.0,Bastrop ISD,2015-06-26
"11133 Bright Leaf TER # 11133, Austin TX 78748",78748,200000,30.155951,-97.831917,3521.0,Austin ISD,2015-06-25
"1905 Thornton LN, Georgetown TX 78628",78628,100000,30.662238,-97.680198,2954.0,Georgetown ISD,2015-07-22
"1401 Green Pastures CV, Austin TX 78725",78725,100000,30.222875,-97.627194,860.0,Del Valle ISD,2015-07-01
"285 Sand Hills LN, Austin TX 78737",78737,500000,30.17902,-97.981113,0.0,Dripping Springs ISD,2015-06-30
"2007 Jasper LN, Cedar Park TX 78613",78613,300000,30.487874,-97.849191,5705.0,Leander ISD,2015-06-30
"13108 Noche Clara DR, Del Valle TX 78617",78617,200000,30.16699,-97.618864,3112.0,Del Valle ISD,2015-08-01
"12701 Sky Harbor DR, Del Valle TX 78617",78617,100000,30.167478,-97.626319,2522.0,Del Valle ISD,2015-06-30
"15905 Estencia Rey DR, Austin TX 78717",78717,300000,30.504529,-97.757089,8182.0,Round Rock ISD,2015-07-06
"3018 Paseo de Charros LN, Leander TX 78641",78641,500000,30.552876,-97.789955,12999.0,Leander ISD,2015-07-02
"1937 Rue De St Tropez # 7, Austin TX 78746",78746,900000,30.304711,-97.784486,6508.0,Eanes ISD,2015-07-10
"606 Riverway, Leander TX 78641",78641,200000,30.578101,-97.875907,4200.0,Leander ISD,2015-07-13
"6005 Mesa Verde, Austin TX 78749",78749,300000,30.210045,-97.87454,5503.0,Austin ISD,2015-07-03
"17513 Marfa Lights TRL, Round Rock TX 78664",78664,200000,30.473796,-97.646066,4620.0,Pflugerville ISD,2015-07-02
"14812 Cordero DR, Austin TX 78717",78717,300000,30.489558,-97.767188,6035.0,Round Rock ISD,2015-07-06
"12007 TRIANON LN, Austin TX 78727",78727,300000,30.413329,-97.723466,4715.0,Austin ISD,2015-08-20
"12603 Tomanet TRL, Austin TX 78727",78727,300000,30.420971,-97.698728,3317.0,Austin ISD,2015-07-03
"7116 Tanaqua LN, Austin TX 78739",78739,500000,30.189917,-97.901039,10200.0,Austin ISD,2015-07-08
"5101 Avenue F, Austin TX 78751",78751,300000,30.315559,-97.722301,6271.0,Austin ISD,2015-07-07
"2105 Briar CV, Cedar Park TX 78613",78613,200000,30.533726,-97.842146,3541.0,Leander ISD,2015-07-06
"161 Hidden Canyon CV, Driftwood TX 78619",78619,500000,30.094276,-98.049847,1599.0,Hays ISD,2015-07-06
"7005 Mount Carrell DR, Austin TX 78745",78745,200000,30.196515,-97.796367,4319.0,Austin ISD,2015-07-14
"16704 Trevin CV, Manor TX 78653",78653,100000,30.337204,-97.550824,3251.0,Manor ISD,2015-07-09
"8888 Tallwood DR # 3104, Austin TX 78759",78759,100000,30.377208,-97.740079,1684.0,Austin ISD,2015-07-09
"6106 Cary DR, Austin TX 78757",78757,1000000,30.340002,-97.745962,7552.0,Austin ISD,2015-07-10
"1414 Hillcrest DR, Taylor TX 76574",76574,100000,30.586142,-97.432185,3522.0,Taylor ISD,2015-07-12
"2124 Burton DR # 126, Austin TX 78741",78741,80000,30.231786,-97.733577,1020.0,Austin ISD,2015-07-10
"1402 Apache CV, Pflugerville TX 78660",78660,200000,30.439622,-97.639999,4215.0,Pflugerville ISD,2015-07-12
"4605 West Rim CV, Austin TX 78731",78731,900000,30.372,-97.766959,17883.0,Austin ISD,2015-07-12
"4005 Veiled Falls DR, Pflugerville TX 78660",78660,200000,30.453878,-97.567594,5588.0,Pflugerville ISD,2015-07-13
"1112 W 10th ST, Austin TX 78703",78703,1000000,30.275903,-97.754085,19240.0,Austin ISD,2015-07-23
"5608 Joe Sayers AVE, Austin TX 78756",78756,300000,30.329321,-97.734665,6523.05,Austin ISD,2015-07-07
"13416 Capadocia CV, Austin TX 78727",78727,200000,30.430273,-97.692937,5127.0,Pflugerville ISD,2015-07-11
"123 Cutting Horse TRL, Bastrop TX 78602",78602,200000,30.160468,-97.3029,3911.0,Bastrop ISD,2015-07-10
,78759,200000,30.376826,-97.757734,3195.0,Austin ISD,2015-07-17
"104 Abamillo DR, Bastrop TX 78602",78602,300000,30.127376,-97.411082,8733.0,Bastrop ISD,2015-07-16
"279 Brandons WAY, Buda TX 78610",78610,200000,30.043652,-97.811938,4551.0,Hays ISD,2015-07-16
"100 Martino TRL, Georgetown TX 78628",78628,300000,30.634188,-97.817071,0.0,Liberty Hill ISD,2015-07-16
"8913 United Kingdom DR, Austin TX 78748",78748,200000,30.177455,-97.808369,3723.0,Austin ISD,2015-07-13
"2835 Angelina DR, Round Rock TX 78665",78665,300000,30.55841,-97.608621,7628.0,Round Rock ISD,2015-07-16
"7000 William Wallace WAY, Austin TX 78754",78754,300000,30.350951,-97.608432,5654.0,Manor ISD,2015-07-17
"3685 Homannville TRL, Lockhart TX 78644",78644,100000,30.002521,-97.684588,847.0,Lockhart ISD,2015-08-25
"11005 Spear Oak CV, Austin TX 78759",78759,400000,30.418965,-97.771154,7579.0,Round Rock ISD,2015-07-17
"10422 Firethorn LN, Austin TX 78750",78750,200000,30.454384,-97.801382,3547.0,Round Rock ISD,2015-07-22
"2135 High RD, Kyle TX 78640",78640,200000,29.975652,-97.790907,4004.0,Hays ISD,2015-07-24
"9724 Rias WAY, Austin TX 78717",78717,400000,30.511406,-97.752988,7915.0,Round Rock ISD,2015-07-23
"3206 Primrose TRL, Georgetown TX 78628",78628,100000,30.667071,-97.691592,3184.0,Georgetown ISD,2015-07-20
,78749,200000,30.205693,-97.847315,4534.0,Austin ISD,2015-07-31
"2901A Acopio Bend, Austin TX 78745",78745,200000,30.191893,-97.829536,4680.0,Austin ISD,2015-07-27
"1115 Concan, Hutto TX 78634",78634,200000,30.531828,-97.558434,4620.0,Hutto ISD,2015-07-24
"109 Gettysburg, Elgin TX 78621",78621,100000,30.358151,-97.391072,3203.0,Elgin ISD,2015-07-24
"8419 Racine TRL, Austin TX 78717",78717,200000,30.49209,-97.741777,5077.0,Round Rock ISD,2015-07-24
"308 Miracle Rose WAY, Georgetown TX 78628",78628,400000,30.574912,-97.767624,11441.0,Georgetown ISD,2015-07-23
"451 Billie Brooks LN, Driftwood TX 78619",78619,200000,30.056355,-98.014347,1809.0,Wimberley ISD,2015-09-18
"7607 Bellflower CV, Austin TX 78759",78759,700000,30.418523,-97.777077,11544.0,Round Rock ISD,2015-07-24
"1020 Washburn DR, Leander TX 78641",78641,200000,30.593059,-97.880515,4918.0,Leander ISD,2015-07-23
"2450 Wickersham LN # L1208, Austin TX 78741",78741,100000,30.22418,-97.726748,1843.0,Del Valle ISD,2015-07-22
"6204 Parliament DR, Austin TX 78724",78724,200000,30.288282,-97.66086,2392.0,Austin ISD,2015-08-01
"4609 Placid PL, Austin TX 78731",78731,800000,30.323248,-97.752763,12804.0,Austin ISD,2015-07-24
"2722 Loyaga DR, Round Rock TX 78681",78681,400000,30.540001,-97.704117,7684.0,Round Rock ISD,2015-07-24
"1205 W 7th ST, Taylor TX 76574",76574,200000,30.572113,-97.423784,2643.0,Taylor ISD,2015-07-24
"1929 Granite Springs RD, Leander TX 78641",78641,400000,30.564567,-97.803107,10132.0,Leander ISD,2015-07-31
"1011 Springbrook DR, Pflugerville TX 78660",78660,200000,30.474371,-97.634093,5070.37,Pflugerville ISD,2015-08-13
"181 Kype CV, Kyle TX 78640",78640,200000,29.979083,-97.862051,4331.0,Hays ISD,2015-07-31
"718 Ranier LN, Round Rock TX 78665",78665,200000,30.540197,-97.642801,4201.0,Round Rock ISD,2015-07-26
"13101 Easley DR, Manchaca TX 78652",78652,300000,30.119807,-97.821666,4268.0,Austin ISD,2015-07-29
"718 Riverside DR, Bastrop TX 78602",78602,300000,30.070108,-97.285825,4025.0,Bastrop ISD,2015-07-29
"2707 Gatlin Creek RD, Dripping Springs TX 78620",78620,800000,30.126796,-98.138265,4547.0,Dripping Springs ISD,2015-08-31
"14700 Harcourt House LN, Pflugerville TX 78660",78660,200000,30.419862,-97.635433,5344.8,Pflugerville ISD,2015-07-30
"2207 East Side DR, Austin TX 78704",78704,400000,30.239101,-97.747675,10472.0,Austin ISD,2015-08-01
"2741 Plantation DR, Round Rock TX 78681",78681,300000,30.542857,-97.700076,7267.0,Round Rock ISD,2015-08-03
"121 Spring Branch LOOP, Kyle TX 78640",78640,100000,30.005332,-97.877595,2775.0,Hays ISD,2015-07-31
"2410 Great Oaks DR # 401, Round Rock TX 78681",78681,200000,30.537488,-97.742005,3636.0,Leander ISD,2015-08-03
"676 Bottle Brush DR, Kyle TX 78640",78640,200000,30.005765,-97.890301,5106.0,Hays ISD,2015-07-31
"6604 Glebe PATH, Austin TX 78754",78754,200000,30.347091,-97.616291,4086.0,Manor ISD,2015-07-31
"100 Lakemont DR, Hutto TX 78634",78634,200000,30.511599,-97.566895,3869.0,Hutto ISD,2015-07-31
,78641,200000,30.549289,-97.86493,4238.0,Leander ISD,2015-08-01
"414 Fort Boggy DR, Georgetown TX 78633",78633,300000,30.730609,-97.738644,5247.0,Georgetown ISD,2015-08-04
"513 Woodlake DR, McQueeney TX 78123",78123,200000,29.619492,-98.0359,2912.0,Seguin ISD,2015-08-03
"2100 Brewers PL, Taylor TX 76574",76574,100000,30.585275,-97.435376,2409.0,Taylor ISD,2015-08-04
